ZIP,Income,FICO3byIncome,ST2offset,FICO3,city,state,latitude,longitude,timezone,dst,Tax
00210,66657.66203,715,7.431383907,715,Portsmouth,NH,43.005895,-71.013202,-5,1,0
00211,66657.66203,715,7.431383907,715,Portsmouth,NH,43.005895,-71.013202,-5,1,0
00212,66657.66203,715,7.431383907,715,Portsmouth,NH,43.005895,-71.013202,-5,1,0
00213,66657.66203,715,7.431383907,715,Portsmouth,NH,43.005895,-71.013202,-5,1,0
00214,66657.66203,715,7.431383907,715,Portsmouth,NH,43.005895,-71.013202,-5,1,0
00215,66657.66203,715,7.431383907,715,Portsmouth,NH,43.005895,-71.013202,-5,1,0
00501,61114.79391,704,0.578057472,704,Holtsville,NY,40.922326,-72.637078,-5,1,0.08625
00544,61114.79391,704,0.578057472,704,Holtsville,NY,40.922326,-72.637078,-5,1,0.08625
00601,21377.54815,671,-2.694122433,671,Adjuntas,PR,18.180103,-66.74947,-4,0,0.115
00602,21377.54815,671,-2.694122433,671,Aguada,PR,18.363285,-67.18024,-4,0,0.115
00603,21377.54815,671,-2.694122433,671,Aguadilla,PR,18.448619,-67.13422,-4,0,0.115
00604,21377.54815,671,-2.694122433,671,Aguadilla,PR,18.498987,-67.13699,-4,0,0.115
00605,21377.54815,671,-2.694122433,671,Aguadilla,PR,18.465162,-67.141486,-4,0,0.115
00606,21377.54815,671,-2.694122433,671,Maricao,PR,18.182151,-66.9588,-4,0,0.115
00607,21377.54815,671,-2.694122433,671,Aguas Buenas,PR,18.256995,-66.104657,-4,0,0.115
00609,21377.54815,671,-2.694122433,671,Aibonito,PR,18.142002,-66.273278,-4,0,0.115
00610,21377.54815,671,-2.694122433,671,Anasco,PR,18.288319,-67.13604,-4,0,0.115
00611,21377.54815,671,-2.694122433,671,Angeles,PR,18.279531,-66.80217,-4,0,0.115
00612,21377.54815,671,-2.694122433,671,Arecibo,PR,18.449732,-66.69879,-4,0,0.115
00613,21377.54815,671,-2.694122433,671,Arecibo,PR,18.458093,-66.732732,-4,0,0.115
00614,21377.54815,671,-2.694122433,671,Arecibo,PR,18.429675,-66.674506,-4,0,0.115
00615,21377.54815,671,-2.694122433,671,Arroyo,PR,17.96977,-66.061459,-4,0,0.115
00616,21377.54815,671,-2.694122433,671,Bajadero,PR,18.426748,-66.67669,-4,0,0.115
00617,21377.54815,671,-2.694122433,671,Barceloneta,PR,18.455499,-66.55575,-4,0,0.115
00618,21377.54815,671,-2.694122433,671,Barranquitas,PR,18.185463,-66.305827,-4,0,0.115
00622,21377.54815,671,-2.694122433,671,Boqueron,PR,18.003125,-67.16745,-4,0,0.115
00623,21377.54815,671,-2.694122433,671,Cabo Rojo,PR,18.08643,-67.15222,-4,0,0.115
00624,21377.54815,671,-2.694122433,671,Penuelas,PR,18.055399,-66.72602,-4,0,0.115
00625,21377.54815,671,-2.694122433,671,Caguas,PR,18.232109,-66.039087,-4,0,0.115
00626,21377.54815,671,-2.694122433,671,Caguas,PR,18.235003,-66.037318,-4,0,0.115
00627,21377.54815,671,-2.694122433,671,Camuy,PR,18.435246,-66.85644,-4,0,0.115
00631,21377.54815,671,-2.694122433,671,Castaner,PR,18.186739,-66.85174,-4,0,0.115
00633,21377.54815,671,-2.694122433,671,Cayey,PR,18.194527,-66.183467,-4,0,0.115
00634,21377.54815,671,-2.694122433,671,Cayey,PR,18.111528,-66.177083,-4,0,0.115
00635,21377.54815,671,-2.694122433,671,Ceiba,PR,18.262902,-65.646529,-4,0,0.115
00636,21377.54815,671,-2.694122433,671,Rosario,PR,18.113284,-67.039706,-4,0,0.115
00637,21377.54815,671,-2.694122433,671,Sabana Grande,PR,18.073078,-66.94864,-4,0,0.115
00638,21377.54815,671,-2.694122433,671,Ciales,PR,18.308139,-66.49835,-4,0,0.115
00639,21377.54815,671,-2.694122433,671,Cidra,PR,18.176094,-66.158728,-4,0,0.115
00640,21377.54815,671,-2.694122433,671,Coamo,PR,18.077197,-66.359104,-4,0,0.115
00641,21377.54815,671,-2.694122433,671,Utuado,PR,18.268896,-66.70519,-4,0,0.115
00643,21377.54815,671,-2.694122433,671,Corozal,PR,18.341254,-66.315194,-4,0,0.115
00644,21377.54815,671,-2.694122433,671,Coto Laurel,PR,18.049577,-66.55218,-4,0,0.115
00645,21377.54815,671,-2.694122433,671,Culebra,PR,18.308508,-65.304732,-4,0,0.115
00646,21377.54815,671,-2.694122433,671,Dorado,PR,18.442798,-66.27689,-4,0,0.115
00647,21377.54815,671,-2.694122433,671,Ensenada,PR,17.964529,-66.93993,-4,0,0.115
00648,21377.54815,671,-2.694122433,671,Fajardo,PR,18.333038,-65.656182,-4,0,0.115
00650,21377.54815,671,-2.694122433,671,Florida,PR,18.363331,-66.56773,-4,0,0.115
00652,21377.54815,671,-2.694122433,671,Garrochales,PR,18.457453,-66.61217,-4,0,0.115
00653,21377.54815,671,-2.694122433,671,Guanica,PR,17.992112,-66.90097,-4,0,0.115
00654,21377.54815,671,-2.694122433,671,Jobos,PR,17.979518,-66.117219,-4,0,0.115
00655,21377.54815,671,-2.694122433,671,Olimpo,PR,17.976371,-66.116795,-4,0,0.115
00656,21377.54815,671,-2.694122433,671,Guayanilla,PR,18.038866,-66.79168,-4,0,0.115
00658,21377.54815,671,-2.694122433,671,Gurabo,PR,18.254137,-65.973605,-4,0,0.115
00659,21377.54815,671,-2.694122433,671,Hatillo,PR,18.432956,-66.80039,-4,0,0.115
00660,21377.54815,671,-2.694122433,671,Hormigueros,PR,18.139108,-67.12085,-4,0,0.115
00661,21377.54815,671,-2.694122433,671,Humacao,PR,18.150829,-65.826595,-4,0,0.115
00662,21377.54815,671,-2.694122433,671,Isabela,PR,18.478855,-67.01973,-4,0,0.115
00664,21377.54815,671,-2.694122433,671,Jayuya,PR,18.212565,-66.59243,-4,0,0.115
00665,21377.54815,671,-2.694122433,671,Ponce,PR,18.044224,-66.502103,-4,0,0.115
00666,21377.54815,671,-2.694122433,671,Juncos,PR,18.228952,-65.921356,-4,0,0.115
00667,21377.54815,671,-2.694122433,671,Lajas,PR,18.017819,-67.04226,-4,0,0.115
00669,21377.54815,671,-2.694122433,671,Lares,PR,18.288418,-66.87503,-4,0,0.115
00670,21377.54815,671,-2.694122433,671,Las Marias,PR,18.241343,-66.97604,-4,0,0.115
00671,21377.54815,671,-2.694122433,671,Las Piedras,PR,18.1789,-65.869939,-4,0,0.115
00674,21377.54815,671,-2.694122433,671,Manati,PR,18.426137,-66.48697,-4,0,0.115
00676,21377.54815,671,-2.694122433,671,Moca,PR,18.37956,-67.08424,-4,0,0.115
00677,21377.54815,671,-2.694122433,671,Rincon,PR,18.336121,-67.23675,-4,0,0.115
00678,21377.54815,671,-2.694122433,671,Quebradillas,PR,18.442334,-66.93275,-4,0,0.115
00680,21377.54815,671,-2.694122433,671,Mayaguez,PR,18.205232,-67.12655,-4,0,0.115
00681,21377.54815,671,-2.694122433,671,Mayaguez,PR,18.219023,-67.508068,-4,0,0.115
00682,21377.54815,671,-2.694122433,671,Mayaguez,PR,18.208402,-67.15428,-4,0,0.115
00683,21377.54815,671,-2.694122433,671,San German,PR,18.092807,-67.04524,-4,0,0.115
00685,21377.54815,671,-2.694122433,671,San Sebastian,PR,18.332595,-66.98104,-4,0,0.115
00687,21377.54815,671,-2.694122433,671,Morovis,PR,18.31708,-66.41528,-4,0,0.115
00688,21377.54815,671,-2.694122433,671,Sabana Hoyos,PR,18.40415,-66.61348,-4,0,0.115
00690,21377.54815,671,-2.694122433,671,San Antonio,PR,18.495369,-67.09867,-4,0,0.115
00692,21377.54815,671,-2.694122433,671,Vega Alta,PR,18.419666,-66.33186,-4,0,0.115
00693,21377.54815,671,-2.694122433,671,Vega Baja,PR,18.440667,-66.3921,-4,0,0.115
00694,21377.54815,671,-2.694122433,671,Vega Baja,PR,18.443109,-66.398302,-4,0,0.115
00698,21377.54815,671,-2.694122433,671,Yauco,PR,18.06547,-66.85587,-4,0,0.115
00703,21377.54815,671,-2.694122433,671,Aguas Buenas,PR,18.246205,-66.12827,-4,0,0.115
00704,21377.54815,671,-2.694122433,671,Aguirre,PR,17.970112,-66.22291,-4,0,0.115
00705,21377.54815,671,-2.694122433,671,Aibonito,PR,18.12942,-66.26541,-4,0,0.115
00707,21377.54815,671,-2.694122433,671,Maunabo,PR,18.014505,-65.91018,-4,0,0.115
00714,21377.54815,671,-2.694122433,671,Arroyo,PR,17.987288,-66.05552,-4,0,0.115
00715,21377.54815,671,-2.694122433,671,Mercedita,PR,18.003492,-66.55868,-4,0,0.115
00716,21377.54815,671,-2.694122433,671,Ponce,PR,17.999066,-66.59965,-4,0,0.115
00717,21377.54815,671,-2.694122433,671,Ponce,PR,18.004303,-66.61374,-4,0,0.115
00718,21377.54815,671,-2.694122433,671,Naguabo,PR,18.22048,-65.74293,-4,0,0.115
00719,21377.54815,671,-2.694122433,671,Naranjito,PR,18.294571,-66.25098,-4,0,0.115
00720,21377.54815,671,-2.694122433,671,Orocovis,PR,18.217827,-66.42265,-4,0,0.115
00721,21377.54815,671,-2.694122433,671,Palmer,PR,18.364161,-65.778288,-4,0,0.115
00723,21377.54815,671,-2.694122433,671,Patillas,PR,18.023196,-66.0131,-4,0,0.115
00725,21377.54815,671,-2.694122433,671,Caguas,PR,18.233927,-66.04502,-4,0,0.115
00726,21377.54815,671,-2.694122433,671,Caguas,PR,18.212965,-66.058033,-4,0,0.115
00728,21377.54815,671,-2.694122433,671,Ponce,PR,18.013353,-66.65218,-4,0,0.115
00729,21377.54815,671,-2.694122433,671,Canovanas,PR,18.35615,-65.89089,-4,0,0.115
00730,21377.54815,671,-2.694122433,671,Ponce,PR,18.022626,-66.61727,-4,0,0.115
00731,21377.54815,671,-2.694122433,671,Ponce,PR,18.077329,-66.61192,-4,0,0.115
00732,21377.54815,671,-2.694122433,671,Ponce,PR,18.021781,-66.613742,-4,0,0.115
00733,21377.54815,671,-2.694122433,671,Ponce,PR,18.019331,-66.619165,-4,0,0.115
00734,21377.54815,671,-2.694122433,671,Ponce,PR,17.999499,-66.643934,-4,0,0.115
00735,21377.54815,671,-2.694122433,671,Ceiba,PR,18.258444,-65.65987,-4,0,0.115
00736,21377.54815,671,-2.694122433,671,Cayey,PR,18.112895,-66.15377,-4,0,0.115
00737,21377.54815,671,-2.694122433,671,Cayey,PR,18.102967,-66.139274,-4,0,0.115
00738,21377.54815,671,-2.694122433,671,Fajardo,PR,18.32265,-65.66116,-4,0,0.115
00739,21377.54815,671,-2.694122433,671,Cidra,PR,18.16984,-66.16271,-4,0,0.115
00740,21377.54815,671,-2.694122433,671,Puerto Real,PR,18.331711,-65.62761,-4,0,0.115
00741,21377.54815,671,-2.694122433,671,Punta Santiago,PR,18.160755,-65.75765,-4,0,0.115
00742,21377.54815,671,-2.694122433,671,Roosevelt Roads,PR,18.264872,-65.594769,-4,0,0.115
00744,21377.54815,671,-2.694122433,671,Rio Blanco,PR,18.206329,-65.743058,-4,0,0.115
00745,21377.54815,671,-2.694122433,671,Rio Grande,PR,18.366213,-65.82277,-4,0,0.115
00747,21377.54815,671,-2.694122433,671,Lluveras,PR,18.069474,-66.952589,-4,0,0.115
00748,21377.54815,671,-2.694122433,671,Fajardo,PR,18.326732,-65.652484,-4,0,0.115
00751,21377.54815,671,-2.694122433,671,Salinas,PR,17.993803,-66.26534,-4,0,0.115
00752,21377.54815,671,-2.694122433,671,San Antonio,PR,18.493745,-67.097726,-4,0,0.115
00754,21377.54815,671,-2.694122433,671,San Lorenzo,PR,18.15633,-65.96831,-4,0,0.115
00757,21377.54815,671,-2.694122433,671,Santa Isabel,PR,17.98631,-66.39457,-4,0,0.115
00761,21377.54815,671,-2.694122433,671,Utuado,PR,18.265445,-66.702364,-4,0,0.115
00762,21377.54815,671,-2.694122433,671,Vega Alta,PR,18.420218,-66.324284,-4,0,0.115
00763,21377.54815,671,-2.694122433,671,Monserrate,PR,18.452175,-66.399836,-4,0,0.115
00764,21377.54815,671,-2.694122433,671,Vega Baja,PR,18.452084,-66.397138,-4,0,0.115
00765,21377.54815,671,-2.694122433,671,Vieques,PR,18.125664,-65.45603,-4,0,0.115
00766,21377.54815,671,-2.694122433,671,Villalba,PR,18.126023,-66.48208,-4,0,0.115
00767,21377.54815,671,-2.694122433,671,Yabucoa,PR,18.072752,-65.89703,-4,0,0.115
00768,21377.54815,671,-2.694122433,671,Yauco,PR,18.030715,-66.856181,-4,0,0.115
00769,21377.54815,671,-2.694122433,671,Coamo,PR,18.092813,-66.3611,-4,0,0.115
00771,21377.54815,671,-2.694122433,671,Las Piedras,PR,18.18744,-65.87088,-4,0,0.115
00772,21377.54815,671,-2.694122433,671,Loiza,PR,18.427674,-65.87605,-4,0,0.115
00773,21377.54815,671,-2.694122433,671,Luquillo,PR,18.361344,-65.72133,-4,0,0.115
00775,21377.54815,671,-2.694122433,671,Culebra,PR,18.311149,-65.29257,-4,0,0.115
00777,21377.54815,671,-2.694122433,671,Juncos,PR,18.224088,-65.91316,-4,0,0.115
00778,21377.54815,671,-2.694122433,671,Gurabo,PR,18.258628,-65.97791,-4,0,0.115
00780,21377.54815,671,-2.694122433,671,Coto Laurel,PR,18.068538,-66.55939,-4,0,0.115
00782,21377.54815,671,-2.694122433,671,Comerio,PR,18.223348,-66.2267,-4,0,0.115
00783,21377.54815,671,-2.694122433,671,Corozal,PR,18.304874,-66.32305,-4,0,0.115
00784,21377.54815,671,-2.694122433,671,Guayama,PR,17.984137,-66.12779,-4,0,0.115
00785,21377.54815,671,-2.694122433,671,Guayama,PR,18.018822,-66.795603,-4,0,0.115
00786,21377.54815,671,-2.694122433,671,La Plata,PR,18.128092,-66.268717,-4,0,0.115
00791,21377.54815,671,-2.694122433,671,Humacao,PR,18.147257,-65.82269,-4,0,0.115
00792,21377.54815,671,-2.694122433,671,Humacao,PR,18.138029,-65.788499,-4,0,0.115
00794,21377.54815,671,-2.694122433,671,Barranquitas,PR,18.204294,-66.31058,-4,0,0.115
00795,21377.54815,671,-2.694122433,671,Juana Diaz,PR,18.036253,-66.50289,-4,0,0.115
00801,47926.59077,694,0,694,St Thomas,VI,18.322285,-64.963715,-4,0,0.115
00802,47926.59077,694,0,694,St Thomas,VI,18.322285,-64.963715,-4,0,0.115
00803,47926.59077,694,0,694,St Thomas,VI,18.322285,-64.963715,-4,0,0.115
00804,47926.59077,694,0,694,St Thomas,VI,18.322285,-64.963715,-4,0,0.115
00805,47926.59077,694,0,694,St Thomas,VI,18.322285,-64.963715,-4,0,0.115
00820,47926.59077,694,0,694,Christiansted,VI,17.734211,-64.734694,-4,0,0.115
00821,47926.59077,694,0,694,Christiansted,VI,17.734211,-64.734694,-4,0,0.115
00822,47926.59077,694,0,694,Christiansted,VI,17.734211,-64.734694,-4,0,0.115
00823,47926.59077,694,0,694,Christiansted,VI,17.734211,-64.734694,-4,0,0.115
00824,47926.59077,694,0,694,Christiansted,VI,17.734211,-64.734694,-4,0,0.115
00830,47926.59077,694,0,694,St John,VI,18.32816,-64.740737,-4,0,0.115
00831,47926.59077,694,0,694,St John,VI,18.32816,-64.740737,-4,0,0.115
00840,47926.59077,694,0,694,Frederiksted,VI,17.734211,-64.734694,-4,0,0.115
00841,47926.59077,694,0,694,Frederiksted,VI,17.734211,-64.734694,-4,0,0.115
00850,47926.59077,694,0,694,Kingshill,VI,17.734211,-64.734694,-4,0,0.115
00851,47926.59077,694,0,694,Kingshill,VI,17.734211,-64.734694,-4,0,0.115
00901,21377.54815,671,-2.694122433,671,San Juan,PR,18.465426,-66.10786,-4,0,0.115
00902,21377.54815,671,-2.694122433,671,San Juan,PR,18.410462,-66.060533,-4,0,0.115
00906,21377.54815,671,-2.694122433,671,San Juan,PR,18.46454,-66.10079,-4,0,0.115
00907,21377.54815,671,-2.694122433,671,San Juan,PR,18.451131,-66.07798,-4,0,0.115
00908,21377.54815,671,-2.694122433,671,San Juan,PR,18.410462,-66.060533,-4,0,0.115
00909,21377.54815,671,-2.694122433,671,San Juan,PR,18.442282,-66.06764,-4,0,0.115
00910,21377.54815,671,-2.694122433,671,San Juan,PR,18.410462,-66.060533,-4,0,0.115
00911,21377.54815,671,-2.694122433,671,San Juan,PR,18.45009,-66.0577,-4,0,0.115
00912,21377.54815,671,-2.694122433,671,San Juan,PR,18.445946,-66.05928,-4,0,0.115
00913,21377.54815,671,-2.694122433,671,San Juan,PR,18.450907,-66.04256,-4,0,0.115
00914,21377.54815,671,-2.694122433,671,San Juan,PR,18.410462,-66.060533,-4,0,0.115
00915,21377.54815,671,-2.694122433,671,San Juan,PR,18.436995,-66.04888,-4,0,0.115
00916,21377.54815,671,-2.694122433,671,San Juan,PR,18.410462,-66.060533,-4,0,0.115
00917,21377.54815,671,-2.694122433,671,San Juan,PR,18.422263,-66.0513,-4,0,0.115
00918,21377.54815,671,-2.694122433,671,San Juan,PR,18.417668,-66.06494,-4,0,0.115
00919,21377.54815,671,-2.694122433,671,San Juan,PR,18.410462,-66.060533,-4,0,0.115
00920,21377.54815,671,-2.694122433,671,San Juan,PR,18.41242,-66.09069,-4,0,0.115
00921,21377.54815,671,-2.694122433,671,San Juan,PR,18.394019,-66.08633,-4,0,0.115
00922,21377.54815,671,-2.694122433,671,San Juan,PR,18.410462,-66.060533,-4,0,0.115
00923,21377.54815,671,-2.694122433,671,San Juan,PR,18.410681,-66.03806,-4,0,0.115
00924,21377.54815,671,-2.694122433,671,San Juan,PR,18.401917,-66.01194,-4,0,0.115
00925,21377.54815,671,-2.694122433,671,San Juan,PR,18.400006,-66.05028,-4,0,0.115
00926,21377.54815,671,-2.694122433,671,San Juan,PR,18.361363,-66.0562,-4,0,0.115
00927,21377.54815,671,-2.694122433,671,San Juan,PR,18.39184,-66.06867,-4,0,0.115
00928,21377.54815,671,-2.694122433,671,San Juan,PR,18.410462,-66.060533,-4,0,0.115
00929,21377.54815,671,-2.694122433,671,San Juan,PR,18.410462,-66.060533,-4,0,0.115
00930,21377.54815,671,-2.694122433,671,San Juan,PR,18.410462,-66.060533,-4,0,0.115
00931,21377.54815,671,-2.694122433,671,San Juan,PR,18.410462,-66.060533,-4,0,0.115
00933,21377.54815,671,-2.694122433,671,San Juan,PR,18.410462,-66.060533,-4,0,0.115
00934,21377.54815,671,-2.694122433,671,Fort Buchanan,PR,18.413511,-66.12198,-4,0,0.115
00935,21377.54815,671,-2.694122433,671,San Juan,PR,18.410462,-66.060533,-4,0,0.115
00936,21377.54815,671,-2.694122433,671,San Juan,PR,18.410462,-66.060533,-4,0,0.115
00937,21377.54815,671,-2.694122433,671,San Juan,PR,18.410462,-66.060533,-4,0,0.115
00938,21377.54815,671,-2.694122433,671,San Juan,PR,18.410462,-66.060533,-4,0,0.115
00939,21377.54815,671,-2.694122433,671,San Juan,PR,18.410462,-66.060533,-4,0,0.115
00940,21377.54815,671,-2.694122433,671,San Juan,PR,18.410462,-66.060533,-4,0,0.115
00949,21377.54815,671,-2.694122433,671,Toa Baja,PR,18.433173,-66.2042,-4,0,0.115
00950,21377.54815,671,-2.694122433,671,Toa Baja,PR,18.457761,-66.196503,-4,0,0.115
00951,21377.54815,671,-2.694122433,671,Toa Baja,PR,18.457761,-66.196503,-4,0,0.115
00952,21377.54815,671,-2.694122433,671,Sabana Seca,PR,18.429218,-66.18014,-4,0,0.115
00953,21377.54815,671,-2.694122433,671,Toa Alta,PR,18.36802,-66.23414,-4,0,0.115
00954,21377.54815,671,-2.694122433,671,Toa Alta,PR,18.358939,-66.258108,-4,0,0.115
00955,21377.54815,671,-2.694122433,671,San Juan,PR,18.410462,-66.060533,-4,0,0.115
00956,21377.54815,671,-2.694122433,671,Bayamon,PR,18.34216,-66.16643,-4,0,0.115
00957,21377.54815,671,-2.694122433,671,Bayamon,PR,18.369674,-66.18669,-4,0,0.115
00958,21377.54815,671,-2.694122433,671,Bayamon,PR,18.34487,-66.166014,-4,0,0.115
00959,21377.54815,671,-2.694122433,671,Bayamon,PR,18.387063,-66.15943,-4,0,0.115
00960,21377.54815,671,-2.694122433,671,Bayamon,PR,18.34487,-66.166014,-4,0,0.115
00961,21377.54815,671,-2.694122433,671,Bayamon,PR,18.412462,-66.16033,-4,0,0.115
00962,21377.54815,671,-2.694122433,671,Catano,PR,18.437683,-66.13847,-4,0,0.115
00963,21377.54815,671,-2.694122433,671,Catano,PR,18.443217,-66.139293,-4,0,0.115
00965,21377.54815,671,-2.694122433,671,Guaynabo,PR,18.431453,-66.11703,-4,0,0.115
00966,21377.54815,671,-2.694122433,671,Guaynabo,PR,18.398507,-66.11522,-4,0,0.115
00968,21377.54815,671,-2.694122433,671,Guaynabo,PR,18.408479,-66.1025,-4,0,0.115
00969,21377.54815,671,-2.694122433,671,Guaynabo,PR,18.366981,-66.10889,-4,0,0.115
00970,21377.54815,671,-2.694122433,671,Guaynabo,PR,18.359143,-66.112295,-4,0,0.115
00971,21377.54815,671,-2.694122433,671,Guaynabo,PR,18.329688,-66.11876,-4,0,0.115
00975,21377.54815,671,-2.694122433,671,San Juan,PR,18.410462,-66.060533,-4,0,0.115
00976,21377.54815,671,-2.694122433,671,Trujillo Alto,PR,18.346767,-66.00561,-4,0,0.115
00977,21377.54815,671,-2.694122433,671,Trujillo Alto,PR,18.337004,-65.990099,-4,0,0.115
00978,21377.54815,671,-2.694122433,671,St Just,PR,18.337004,-65.990099,-4,0,0.115
00979,21377.54815,671,-2.694122433,671,Carolina,PR,18.431885,-66.0127,-4,0,0.115
00981,21377.54815,671,-2.694122433,671,Carolina,PR,18.410462,-66.060533,-4,0,0.115
00982,21377.54815,671,-2.694122433,671,Carolina,PR,18.409345,-65.99313,-4,0,0.115
00983,21377.54815,671,-2.694122433,671,Carolina,PR,18.414408,-65.97582,-4,0,0.115
00984,21377.54815,671,-2.694122433,671,Carolina,PR,18.393355,-65.972495,-4,0,0.115
00985,21377.54815,671,-2.694122433,671,Carolina,PR,18.374896,-65.94691,-4,0,0.115
00986,21377.54815,671,-2.694122433,671,Carolina,PR,18.393355,-65.972495,-4,0,0.115
00987,21377.54815,671,-2.694122433,671,Carolina,PR,18.372228,-65.96275,-4,0,0.115
00988,21377.54815,671,-2.694122433,671,Carolina,PR,18.393355,-65.972495,-4,0,0.115
01001,56663,700,4,704,Agawam,MA,42.07061,-72.62029,-5,1,0.0625
01002,49853,695,4,699,Amherst,MA,42.377651,-72.50323,-5,1,0.0625
01003,28462,679,4,683,Amherst,MA,42.369562,-72.63599,-5,1,0.0625
01004,69884.5643,714,4.017306933,714,Amherst,MA,42.384494,-72.513183,-5,1,0.0625
01005,75423,714,4,718,Barre,MA,42.412094,-72.10443,-5,1,0.0625
01007,79076,717,4,721,Belchertown,MA,42.278424,-72.411,-5,1,0.0625
01008,63980,706,4,710,Blandford,MA,42.174313,-72.94828,-5,1,0.0625
01009,51452,696,4,700,Bondsville,MA,42.206092,-72.340486,-5,1,0.0625
01010,75625,714,4,718,Brimfield,MA,42.126038,-72.20552,-5,1,0.0625
01011,63476,705,4,709,Chester,MA,42.271442,-73.01958,-5,1,0.0625
01012,58750,702,4,706,Chesterfield,MA,42.390836,-72.84356,-5,1,0.0625
01013,36578,685,4,689,Chicopee,MA,42.161492,-72.60316,-5,1,0.0625
01014,69884.5643,714,4.017306933,714,Chicopee,MA,42.170731,-72.604842,-5,1,0.0625
01020,50058,695,4,699,Chicopee,MA,42.175992,-72.57265,-5,1,0.0625
01021,69884.5643,714,4.017306933,714,Chicopee,MA,42.170731,-72.604842,-5,1,0.0625
01022,50440,695,4,699,Chicopee,MA,42.196666,-72.55606,-5,1,0.0625
01026,60320,703,4,707,Cummington,MA,42.465041,-72.91813,-5,1,0.0625
01027,58573,702,4,706,Easthampton,MA,42.27279,-72.68677,-5,1,0.0625
01028,80252,718,4,722,East Longmeadow,MA,42.066795,-72.5102,-5,1,0.0625
01029,62955,705,4,709,East Otis,MA,42.175896,-73.04204,-5,1,0.0625
01030,71106,711,4,715,Feeding Hills,MA,42.070774,-72.67248,-5,1,0.0625
01031,61250,704,4,708,Gilbertville,MA,42.33071,-72.18833,-5,1,0.0625
01032,67692,708,4,712,Goshen,MA,42.45792,-72.81551,-5,1,0.0625
01033,69884.5643,714,4.017306933,714,Granby,MA,42.254563,-72.51831,-5,1,0.0625
01034,63980,706,4,710,Granville,MA,42.086224,-72.94464,-5,1,0.0625
01035,69911,710,4,714,Hadley,MA,42.35549,-72.5733,-5,1,0.0625
01036,78869,717,4,721,Hampden,MA,42.064703,-72.41735,-5,1,0.0625
01037,61250,704,4,708,Hardwick,MA,42.374202,-72.19524,-5,1,0.0625
01038,53939,698,4,702,Hatfield,MA,42.375155,-72.60832,-5,1,0.0625
01039,66284,707,4,711,Haydenville,MA,42.381475,-72.69259,-5,1,0.0625
01040,35549,684,4,688,Holyoke,MA,42.201891,-72.6242,-5,1,0.0625
01041,69884.5643,714,4.017306933,714,Holyoke,MA,42.170731,-72.604842,-5,1,0.0625
01050,62097,704,4,708,Huntington,MA,42.290209,-72.87942,-5,1,0.0625
01053,60477,703,4,707,Leeds,MA,42.353105,-72.70206,-5,1,0.0625
01054,67831,708,4,712,Leverett,MA,42.479839,-72.49879,-5,1,0.0625
01056,63318,705,4,709,Ludlow,MA,42.174893,-72.47068,-5,1,0.0625
01057,73254,713,4,717,Monson,MA,42.089269,-72.317,-5,1,0.0625
01059,69884.5643,714,4.017306933,714,North Amherst,MA,42.369562,-72.63599,-5,1,0.0625
01060,48069,694,4,698,Northampton,MA,42.324539,-72.63561,-5,1,0.0625
01061,69884.5643,714,4.017306933,714,Northampton,MA,42.369562,-72.63599,-5,1,0.0625
01062,60686,703,4,707,Florence,MA,42.324232,-72.67915,-5,1,0.0625
01063,40694,688,4,692,Northampton,MA,42.317939,-72.640234,-5,1,0.0625
01066,53939,698,4,702,North Hatfield,MA,42.406697,-72.633901,-5,1,0.0625
01068,77396,716,4,720,Oakham,MA,42.349769,-72.04413,-5,1,0.0625
01069,50345,695,4,699,Palmer,MA,42.176401,-72.32646,-5,1,0.0625
01070,60320,703,4,707,Plainfield,MA,42.515853,-72.91661,-5,1,0.0625
01071,63980,706,4,710,Russell,MA,42.165931,-72.85153,-5,1,0.0625
01072,67831,708,4,712,Shutesbury,MA,42.486027,-72.42208,-5,1,0.0625
01073,80738,718,4,722,Southampton,MA,42.223885,-72.72777,-5,1,0.0625
01074,75423,714,4,718,South Barre,MA,42.375998,-72.149388,-5,1,0.0625
01075,63053,705,4,709,South Hadley,MA,42.234891,-72.58243,-5,1,0.0625
01077,73645,713,4,717,Southwick,MA,42.05283,-72.76966,-5,1,0.0625
01079,51452,696,4,700,Thorndike,MA,42.192892,-72.329574,-5,1,0.0625
01080,50100,695,4,699,Three Rivers,MA,42.180563,-72.36518,-5,1,0.0625
01081,65917,707,4,711,Wales,MA,42.058024,-72.22517,-5,1,0.0625
01082,51936,697,4,701,Ware,MA,42.270611,-72.26067,-5,1,0.0625
01083,55030,699,4,703,Warren,MA,42.20468,-72.20259,-5,1,0.0625
01084,58750,702,4,706,West Chesterfield,MA,42.379807,-72.89043,-5,1,0.0625
01085,57598,701,4,705,Westfield,MA,42.133642,-72.75029,-5,1,0.0625
01086,93611,728,4,732,Westfield,MA,42.173428,-72.847964,-5,1,0.0625
01088,53939,698,4,702,West Hatfield,MA,42.388831,-72.6321,-5,1,0.0625
01089,53711,698,4,702,West Springfield,MA,42.112793,-72.64066,-5,1,0.0625
01090,69884.5643,714,4.017306933,714,West Springfield,MA,42.170731,-72.604842,-5,1,0.0625
01092,55030,699,4,703,West Warren,MA,42.210777,-72.23904,-5,1,0.0625
01093,59722,702,4,706,Whately,MA,42.442673,-72.652511,-5,1,0.0625
01094,61250,704,4,708,Wheelwright,MA,42.358201,-72.140846,-5,1,0.0625
01095,89486,725,4,729,Wilbraham,MA,42.12531,-72.44057,-5,1,0.0625
01096,66148,707,4,711,Williamsburg,MA,42.415236,-72.78271,-5,1,0.0625
01097,63980,706,4,710,Woronoco,MA,42.161743,-72.845912,-5,1,0.0625
01098,60320,703,4,707,Worthington,MA,42.399054,-72.93871,-5,1,0.0625
01101,69884.5643,714,4.017306933,714,Springfield,MA,42.170731,-72.604842,-5,1,0.0625
01102,69884.5643,714,4.017306933,714,Springfield,MA,42.170731,-72.604842,-5,1,0.0625
01103,16963,670,4,674,Springfield,MA,42.103294,-72.59112,-5,1,0.0625
01104,35380,684,4,688,Springfield,MA,42.130343,-72.57338,-5,1,0.0625
01105,17756,671,4,675,Springfield,MA,42.096644,-72.5798,-5,1,0.0625
01106,91889,726,4,730,Longmeadow,MA,42.050395,-72.5712,-5,1,0.0625
01107,23557,675,4,679,Springfield,MA,42.120193,-72.6061,-5,1,0.0625
01108,37411,686,4,690,Springfield,MA,42.084094,-72.55523,-5,1,0.0625
01109,34638,684,4,688,Springfield,MA,42.116277,-72.55031,-5,1,0.0625
01111,69884.5643,714,4.017306933,714,Springfield,MA,42.170731,-72.604842,-5,1,0.0625
01114,69884.5643,714,4.017306933,714,Springfield,MA,42.170731,-72.604842,-5,1,0.0625
01115,69884.5643,714,4.017306933,714,Springfield,MA,42.102894,-72.591633,-5,1,0.0625
01116,69884.5643,714,4.017306933,714,Longmeadow,MA,42.170731,-72.604842,-5,1,0.0625
01118,55853,699,4,704,Springfield,MA,42.093144,-72.5291,-5,1,0.0625
01119,45184,692,4,696,Springfield,MA,42.128442,-72.50932,-5,1,0.0625
01128,63177,705,4,709,Springfield,MA,42.095344,-72.48857,-5,1,0.0625
01129,58704,702,4,706,Springfield,MA,42.121031,-72.4896,-5,1,0.0625
01133,69884.5643,714,4.017306933,714,Springfield,MA,42.170731,-72.604842,-5,1,0.0625
01138,69884.5643,714,4.017306933,714,Springfield,MA,42.170731,-72.604842,-5,1,0.0625
01139,69884.5643,714,4.017306933,714,Springfield,MA,42.170731,-72.604842,-5,1,0.0625
01144,69884.5643,714,4.017306933,714,Springfield,MA,42.101796,-72.59151,-5,1,0.0625
01151,34175,683,4,687,Indian Orchard,MA,42.153926,-72.50531,-5,1,0.0625
01152,69884.5643,714,4.017306933,714,Springfield,MA,42.170731,-72.604842,-5,1,0.0625
01199,48306,694,4,698,Springfield,MA,42.119943,-72.604983,-5,1,0.0625
01201,46765,693,4,697,Pittsfield,MA,42.45384,-73.254,-5,1,0.0625
01202,69884.5643,714,4.017306933,714,Pittsfield,MA,42.3929,-73.228483,-5,1,0.0625
01203,69884.5643,714,4.017306933,714,Pittsfield,MA,42.3929,-73.228483,-5,1,0.0625
01220,38379,686,4,690,Adams,MA,42.619727,-73.11842,-5,1,0.0625
01222,47145,693,4,697,Ashley Falls,MA,42.057496,-73.32177,-5,1,0.0625
01223,48478,694,4,698,Becket,MA,42.314449,-73.09335,-5,1,0.0625
01224,66458,707,4,711,Berkshire,MA,42.3929,-73.228483,-5,1,0.0625
01225,57419,701,4,705,Cheshire,MA,42.551731,-73.1653,-5,1,0.0625
01226,57505,701,4,705,Dalton,MA,42.476575,-73.11547,-5,1,0.0625
01227,69884.5643,714,4.017306933,714,Dalton,MA,42.516145,-73.092852,-5,1,0.0625
01229,55096,699,4,703,Glendale,MA,42.279292,-73.343545,-5,1,0.0625
01230,53584,698,4,702,Great Barrington,MA,42.189715,-73.35249,-5,1,0.0625
01231,69884.5643,714,4.017306933,714,Sheffield,MA,42.153001,-73.298131,-5,1,0.0625
01235,63877,705,4,710,Hinsdale,MA,42.433661,-73.09278,-5,1,0.0625
01236,55718,699,4,703,Housatonic,MA,42.266874,-73.36236,-5,1,0.0625
01237,69659,710,4,714,Lanesboro,MA,42.557346,-73.24364,-5,1,0.0625
01238,51053,696,4,700,Lee,MA,42.299263,-73.2327,-5,1,0.0625
01240,60458,703,4,707,Lenox,MA,42.36237,-73.27683,-5,1,0.0625
01242,60604,703,4,707,Lenox Dale,MA,42.336557,-73.24599,-5,1,0.0625
01243,60320,703,4,707,Middlefield,MA,42.356088,-73.010448,-5,1,0.0625
01244,57917,701,4,705,Mill River,MA,42.139104,-73.20312,-5,1,0.0625
01245,63152,705,4,709,Monterey,MA,42.180659,-73.20849,-5,1,0.0625
01247,38405,686,4,690,North Adams,MA,42.696064,-73.10145,-5,1,0.0625
01252,69884.5643,714,4.017306933,714,North Egremont,MA,42.198648,-73.446234,-5,1,0.0625
01253,62955,705,4,709,Otis,MA,42.198403,-73.10205,-5,1,0.0625
01254,79145,717,4,721,Richmond,MA,42.374711,-73.36336,-5,1,0.0625
01255,62955,705,4,709,Sandisfield,MA,42.088973,-73.12444,-5,1,0.0625
01256,54167,698,4,702,Savoy,MA,42.592506,-73.01123,-5,1,0.0625
01257,47145,693,4,697,Sheffield,MA,42.102694,-73.36591,-5,1,0.0625
01258,55764,699,4,703,South Egremont,MA,42.103122,-73.45734,-5,1,0.0625
01259,57917,701,4,705,Southfield,MA,42.0645,-73.24674,-5,1,0.0625
01260,53297,698,4,702,South Lee,MA,42.286586,-73.313274,-5,1,0.0625
01262,55096,699,4,703,Stockbridge,MA,42.283216,-73.31423,-5,1,0.0625
01263,69884.5643,714,4.017306933,714,Stockbridge,MA,42.3929,-73.228483,-5,1,0.0625
01264,63250,705,4,709,Tyringham,MA,42.224905,-73.20394,-5,1,0.0625
01266,64328,706,4,710,West Stockbridge,MA,42.328535,-73.36407,-5,1,0.0625
01267,69925,710,4,714,Williamstown,MA,42.689962,-73.22355,-5,1,0.0625
01270,70662,711,4,715,Windsor,MA,42.443726,-73.116127,-5,1,0.0625
01301,47833,693,4,698,Greenfield,MA,42.605524,-72.60098,-5,1,0.0625
01302,69884.5643,714,4.017306933,714,Greenfield,MA,42.522178,-72.624164,-5,1,0.0625
01330,70326,710,4,714,Ashfield,MA,42.521131,-72.81116,-5,1,0.0625
01331,49110,694,4,698,Athol,MA,42.579931,-72.20836,-5,1,0.0625
01337,57550,701,4,705,Bernardston,MA,42.678023,-72.55569,-5,1,0.0625
01338,56596,700,4,704,Buckland,MA,42.569498,-72.802,-5,1,0.0625
01339,6531,663,4,667,Charlemont,MA,42.626858,-72.87939,-5,1,0.0625
01340,69884.5643,714,4.017306933,714,Colrain,MA,42.673371,-72.73104,-5,1,0.0625
01341,70326,710,4,714,Conway,MA,42.508313,-72.70403,-5,1,0.0625
01342,61912,704,4,708,Deerfield,MA,42.542322,-72.6091,-5,1,0.0625
01343,54167,698,4,702,Drury,MA,42.642666,-72.986231,-5,1,0.0625
01344,54836,699,4,703,Erving,MA,42.607051,-72.41396,-5,1,0.0625
01346,69884.5643,714,4.017306933,714,Heath,MA,42.669255,-72.80494,-5,1,0.0625
01347,50189,695,4,699,Lake Pleasant,MA,42.556558,-72.518104,-5,1,0.0625
01349,51401,696,4,700,Turners Falls,MA,42.5737,-72.50525,-5,1,0.0625
01350,69884.5643,714,4.017306933,714,Monroe Bridge,MA,42.712257,-72.97629,-5,1,0.0625
01351,50189,695,4,699,Montague,MA,42.534976,-72.52522,-5,1,0.0625
01354,57550,701,4,705,Northfield,MA,42.522178,-72.624164,-5,1,0.0625
01355,67831,708,4,712,New Salem,MA,42.485899,-72.33345,-5,1,0.0625
01360,70606,711,4,715,Northfield,MA,42.682285,-72.45649,-5,1,0.0625
01364,44676,691,4,695,Orange,MA,42.599614,-72.29263,-5,1,0.0625
01366,68374,709,4,713,Petersham,MA,42.474718,-72.21226,-5,1,0.0625
01367,69884.5643,714,4.017306933,714,Rowe,MA,42.694883,-72.90962,-5,1,0.0625
01368,61950,704,4,708,Royalston,MA,42.671012,-72.16999,-5,1,0.0625
01369,69884.5643,714,4.017306933,714,Shattuckville,MA,42.522178,-72.624164,-5,1,0.0625
01370,53003,697,4,701,Shelburne Falls,MA,42.603447,-72.72754,-5,1,0.0625
01373,61438,704,4,708,South Deerfield,MA,42.472734,-72.62452,-5,1,0.0625
01374,69884.5643,714,4.017306933,714,Charlemont,MA,42.636459,-72.798742,-5,1,0.0625
01375,59722,702,4,706,Sunderland,MA,42.449978,-72.56302,-5,1,0.0625
01376,36099,685,4,689,Turners Falls,MA,42.609425,-72.54438,-5,1,0.0625
01378,54836,699,4,703,Warwick,MA,42.667152,-72.32729,-5,1,0.0625
01379,54836,699,4,703,Wendell,MA,42.547274,-72.41724,-5,1,0.0625
01380,69884.5643,714,4.017306933,714,Wendell Depot,MA,42.594455,-72.36314,-5,1,0.0625
01393,69884.5643,714,4.017306933,714,Whately,MA,42.459814,-72.593626,-5,1,0.0625
01420,48606,694,4,698,Fitchburg,MA,42.578689,-71.80338,-5,1,0.0625
01427,69884.5643,714,4.017306933,714,Westborough,MA,42.286575,-71.585753,-5,1,0.0625
01430,79875,717,4,721,Ashburnham,MA,42.658768,-71.93287,-5,1,0.0625
01431,80143,718,4,722,Ashby,MA,42.672005,-71.8137,-5,1,0.0625
01432,55863,699,4,704,Ayer,MA,42.549821,-71.59136,-5,1,0.0625
01434,119016,747,4,751,Ayer,MA,42.549821,-71.59136,-5,1,0.0625
01436,66138,707,4,711,Baldwinville,MA,42.608903,-72.08021,-5,1,0.0625
01438,66138,707,4,711,East Templeton,MA,42.563367,-72.03498,-5,1,0.0625
01440,51232,696,4,700,Gardner,MA,42.575355,-71.99183,-5,1,0.0625
01441,69884.5643,714,4.017306933,714,Gardner,MA,42.364807,-71.896868,-5,1,0.0625
01450,123278,750,4,754,Groton,MA,42.609887,-71.55722,-5,1,0.0625
01451,141274,763,4,767,Harvard,MA,42.505928,-71.5888,-5,1,0.0625
01452,82443,719,4,723,Hubbardston,MA,42.477515,-71.99654,-5,1,0.0625
01453,57280,701,4,705,Leominster,MA,42.526523,-71.75358,-5,1,0.0625
01460,103751,735,4,739,Littleton,MA,42.540052,-71.49085,-5,1,0.0625
01462,84911,721,4,725,Lunenburg,MA,42.582839,-71.72051,-5,1,0.0625
01463,85403,722,4,726,Pepperell,MA,42.665686,-71.5929,-5,1,0.0625
01464,72598,712,4,716,Shirley,MA,42.559289,-71.64555,-5,1,0.0625
01467,141274,763,4,767,Still River,MA,42.488666,-71.62412,-5,1,0.0625
01468,66138,707,4,711,Templeton,MA,42.557796,-72.06824,-5,1,0.0625
01469,78502,716,4,720,Townsend,MA,42.658738,-71.69204,-5,1,0.0625
01470,69884.5643,714,4.017306933,714,Groton,MA,42.446396,-71.459405,-5,1,0.0625
01471,69884.5643,714,4.017306933,714,Groton,MA,42.446396,-71.459405,-5,1,0.0625
01472,69884.5643,714,4.017306933,714,West Groton,MA,42.446396,-71.459405,-5,1,0.0625
01473,79073,717,4,721,Westminster,MA,42.544622,-71.9021,-5,1,0.0625
01474,78207,716,4,720,West Townsend,MA,42.669408,-71.74578,-5,1,0.0625
01475,56274,700,4,704,Winchendon,MA,42.675441,-72.0467,-5,1,0.0625
01477,69884.5643,714,4.017306933,714,Winchendon Springs,MA,42.364807,-71.896868,-5,1,0.0625
01501,70683,711,4,715,Auburn,MA,42.20361,-71.83843,-5,1,0.0625
01503,92917,727,4,731,Berlin,MA,42.380562,-71.62665,-5,1,0.0625
01504,74067,713,4,717,Blackstone,MA,42.028147,-71.52999,-5,1,0.0625
01505,88214,724,4,728,Boylston,MA,42.338392,-71.73026,-5,1,0.0625
01506,60189,703,4,707,Brookfield,MA,42.200374,-72.09787,-5,1,0.0625
01507,86561,722,4,726,Charlton,MA,42.135142,-71.96961,-5,1,0.0625
01508,69884.5643,714,4.017306933,714,Charlton City,MA,42.109748,-72.079455,-5,1,0.0625
01509,69884.5643,714,4.017306933,714,Charlton Depot,MA,42.364807,-71.896868,-5,1,0.0625
01510,57957,701,4,705,Clinton,MA,42.418836,-71.68482,-5,1,0.0625
01515,71964,712,4,716,East Brookfield,MA,42.212777,-72.05311,-5,1,0.0625
01516,86214,722,4,726,Douglas,MA,42.061437,-71.72887,-5,1,0.0625
01517,69884.5643,714,4.017306933,714,East Princeton,MA,42.364807,-71.896868,-5,1,0.0625
01518,72983,712,4,716,Fiskdale,MA,42.12515,-72.12393,-5,1,0.0625
01519,105605,737,4,741,Grafton,MA,42.201674,-71.68771,-5,1,0.0625
01520,92166,727,4,731,Holden,MA,42.338962,-71.84434,-5,1,0.0625
01521,65917,707,4,711,Holland,MA,42.054676,-72.16137,-5,1,0.0625
01522,82165,719,4,723,Jefferson,MA,42.369658,-71.87418,-5,1,0.0625
01523,80938,718,4,722,Lancaster,MA,42.473131,-71.67946,-5,1,0.0625
01524,74316,713,4,717,Leicester,MA,42.238942,-71.91908,-5,1,0.0625
01525,89583,725,4,729,Linwood,MA,42.364807,-71.896868,-5,1,0.0625
01526,69884.5643,714,4.017306933,714,Manchaug,MA,42.364807,-71.896868,-5,1,0.0625
01527,68319,709,4,713,Millbury,MA,42.196144,-71.76272,-5,1,0.0625
01529,77250,715,4,720,Millville,MA,42.036396,-71.57798,-5,1,0.0625
01531,61250,704,4,708,New Braintree,MA,42.317121,-72.12248,-5,1,0.0625
01532,103271,735,4,739,Northborough,MA,42.321917,-71.64692,-5,1,0.0625
01534,76675,715,4,719,Northbridge,MA,42.140741,-71.64376,-5,1,0.0625
01535,57196,700,4,705,North Brookfield,MA,42.267274,-72.07823,-5,1,0.0625
01536,89347,725,4,729,North Grafton,MA,42.231444,-71.70523,-5,1,0.0625
01537,68664,709,4,713,North Oxford,MA,42.170846,-71.88989,-5,1,0.0625
01538,69884.5643,714,4.017306933,714,North Uxbridge,MA,42.364807,-71.896868,-5,1,0.0625
01540,62079,704,4,708,Oxford,MA,42.117527,-71.8657,-5,1,0.0625
01541,102853,735,4,739,Princeton,MA,42.451569,-71.882,-5,1,0.0625
01542,67172,708,4,712,Rochdale,MA,42.194793,-71.90651,-5,1,0.0625
01543,81295,719,4,723,Rutland,MA,42.380877,-71.96427,-5,1,0.0625
01545,88643,724,4,728,Shrewsbury,MA,42.286643,-71.72502,-5,1,0.0625
01546,69884.5643,714,4.017306933,714,Shrewsbury,MA,42.364807,-71.896868,-5,1,0.0625
01550,48195,694,4,698,Southbridge,MA,42.070827,-72.03533,-5,1,0.0625
01560,68854,709,4,713,South Grafton,MA,42.177462,-71.69382,-5,1,0.0625
01561,80938,718,4,722,South Lancaster,MA,42.443539,-71.686137,-5,1,0.0625
01562,65184,706,4,710,Spencer,MA,42.247212,-71.99227,-5,1,0.0625
01564,102115,734,4,738,Sterling,MA,42.436875,-71.77333,-5,1,0.0625
01566,72387,712,4,716,Sturbridge,MA,42.104581,-72.08584,-5,1,0.0625
01568,107950,738,4,742,Upton,MA,42.17382,-71.60971,-5,1,0.0625
01569,80536,718,4,722,Uxbridge,MA,42.064978,-71.62992,-5,1,0.0625
01570,50142,695,4,699,Webster,MA,42.047728,-71.86108,-5,1,0.0625
01571,64228,706,4,710,Dudley,MA,42.049864,-71.9173,-5,1,0.0625
01580,69884.5643,714,4.017306933,714,Westborough,MA,42.364807,-71.896868,-5,1,0.0625
01581,101876,734,4,738,Westborough,MA,42.269845,-71.61408,-5,1,0.0625
01582,69884.5643,714,4.017306933,714,Westborough,MA,42.364807,-71.896868,-5,1,0.0625
01583,79865,717,4,721,West Boylston,MA,42.359842,-71.787,-5,1,0.0625
01585,60376,703,4,707,West Brookfield,MA,42.242965,-72.16734,-5,1,0.0625
01586,69884.5643,714,4.017306933,714,West Millbury,MA,42.364807,-71.896868,-5,1,0.0625
01588,67286,708,4,712,Whitinsville,MA,42.114195,-71.67225,-5,1,0.0625
01590,104730,736,4,740,Sutton,MA,42.131028,-71.75121,-5,1,0.0625
01601,69884.5643,714,4.017306933,714,Worcester,MA,42.265275,-71.879415,-5,1,0.0625
01602,61861,704,4,708,Worcester,MA,42.272359,-71.84482,-5,1,0.0625
01603,37454,686,4,690,Worcester,MA,42.240526,-71.83776,-5,1,0.0625
01604,47438,693,4,697,Worcester,MA,42.255393,-71.77459,-5,1,0.0625
01605,41023,688,4,692,Worcester,MA,42.286543,-71.78846,-5,1,0.0625
01606,57646,701,4,705,Worcester,MA,42.311342,-71.79531,-5,1,0.0625
01607,47987,694,4,698,Worcester,MA,42.229543,-71.79501,-5,1,0.0625
01608,26526,678,4,682,Worcester,MA,42.261343,-71.80173,-5,1,0.0625
01609,44501,691,4,695,Worcester,MA,42.271743,-71.81348,-5,1,0.0625
01610,21388,674,4,678,Worcester,MA,42.248493,-71.80793,-5,1,0.0625
01611,63333,705,4,709,Cherry Valley,MA,42.238449,-71.87139,-5,1,0.0625
01612,100358,733,4,737,Paxton,MA,42.307591,-71.91929,-5,1,0.0625
01613,69884.5643,714,4.017306933,714,Worcester,MA,42.293316,-71.801971,-5,1,0.0625
01614,69884.5643,714,4.017306933,714,Worcester,MA,42.364807,-71.896868,-5,1,0.0625
01615,69884.5643,714,4.017306933,714,Worcester,MA,42.364807,-71.896868,-5,1,0.0625
01634,69884.5643,714,4.017306933,714,Tolland,MA,42.069484,-72.999433,-5,1,0.0625
01653,69884.5643,714,4.017306933,714,Worcester,MA,42.364807,-71.896868,-5,1,0.0625
01654,69884.5643,714,4.017306933,714,Worcester,MA,42.364807,-71.896868,-5,1,0.0625
01655,69884.5643,714,4.017306933,714,Worcester,MA,42.364807,-71.896868,-5,1,0.0625
01701,92018,727,4,731,Framingham,MA,42.318695,-71.42344,-5,1,0.0625
01702,53081,697,4,701,Framingham,MA,42.283995,-71.42161,-5,1,0.0625
01703,69884.5643,714,4.017306933,714,Framingham,MA,42.446396,-71.459405,-5,1,0.0625
01704,69884.5643,714,4.017306933,714,Framingham,MA,42.446396,-71.459405,-5,1,0.0625
01705,69884.5643,714,4.017306933,714,Framingham,MA,42.446396,-71.459405,-5,1,0.0625
01718,84559,721,4,725,Village Of Nagog Woods,MA,42.519739,-71.42721,-5,1,0.0625
01719,102222,734,4,738,Boxborough,MA,42.486259,-71.51244,-5,1,0.0625
01720,110534,740,4,744,Acton,MA,42.477142,-71.4422,-5,1,0.0625
01721,91904,726,4,730,Ashland,MA,42.257956,-71.45886,-5,1,0.0625
01730,107033,738,4,742,Bedford,MA,42.496679,-71.27504,-5,1,0.0625
01731,77369,716,4,720,Hanscom AFB,MA,42.459085,-71.27556,-5,1,0.0625
01740,125741,752,4,756,Bolton,MA,42.437086,-71.61266,-5,1,0.0625
01741,155000,774,4,778,Carlisle,MA,42.5286,-71.35084,-5,1,0.0625
01742,119902,747,4,751,Concord,MA,42.457201,-71.37478,-5,1,0.0625
01745,114761,744,4,748,Fayville,MA,42.295544,-71.50468,-5,1,0.0625
01746,101901,734,4,738,Holliston,MA,42.196065,-71.43797,-5,1,0.0625
01747,97227,730,4,734,Hopedale,MA,42.125536,-71.53662,-5,1,0.0625
01748,121182,748,4,752,Hopkinton,MA,42.220447,-71.53418,-5,1,0.0625
01749,76500,715,4,719,Hudson,MA,42.389813,-71.55791,-5,1,0.0625
01750,69884.5643,714,4.017306933,714,Natick,MA,42.273817,-71.378157,-5,1,0.0625
01752,71835,711,4,715,Marlborough,MA,42.350909,-71.54753,-5,1,0.0625
01754,76228,715,4,719,Maynard,MA,42.430781,-71.45594,-5,1,0.0625
01756,102625,734,4,738,Mendon,MA,42.092006,-71.54474,-5,1,0.0625
01757,68565,709,4,713,Milford,MA,42.149176,-71.52149,-5,1,0.0625
01760,90673,726,4,730,Natick,MA,42.290763,-71.35368,-5,1,0.0625
01770,145250,766,4,770,Sherborn,MA,42.231025,-71.37202,-5,1,0.0625
01772,141459,764,4,768,Southborough,MA,42.297643,-71.53369,-5,1,0.0625
01773,143771,765,4,769,Lincoln,MA,42.425537,-71.30316,-5,1,0.0625
01775,117440,746,4,750,Stow,MA,42.423882,-71.51086,-5,1,0.0625
01776,152789,772,4,776,Sudbury,MA,42.38532,-71.42989,-5,1,0.0625
01778,140652,763,4,767,Wayland,MA,42.345583,-71.35643,-5,1,0.0625
01784,69884.5643,714,4.017306933,714,Woodville,MA,42.446396,-71.459405,-5,1,0.0625
01801,71805,711,4,715,Woburn,MA,42.484545,-71.15206,-5,1,0.0625
01803,90659,726,4,730,Burlington,MA,42.506362,-71.20008,-5,1,0.0625
01805,69884.5643,714,4.017306933,714,Burlington,MA,42.446396,-71.459405,-5,1,0.0625
01806,69884.5643,714,4.017306933,714,Woburn,MA,42.446396,-71.459405,-5,1,0.0625
01807,69884.5643,714,4.017306933,714,Woburn,MA,42.446396,-71.459405,-5,1,0.0625
01808,69884.5643,714,4.017306933,714,Woburn,MA,42.446396,-71.459405,-5,1,0.0625
01810,113874,743,4,747,Andover,MA,42.646942,-71.1513,-5,1,0.0625
01812,69884.5643,714,4.017306933,714,Andover,MA,42.647191,-71.184202,-5,1,0.0625
01813,69884.5643,714,4.017306933,714,Woburn,MA,42.446396,-71.459405,-5,1,0.0625
01815,69884.5643,714,4.017306933,714,Woburn,MA,42.446396,-71.459405,-5,1,0.0625
01820,69884.5643,714,4.017306933,714,Pinehurst,MA,42.540779,-71.238175,-5,1,0.0625
01821,87745,723,4,727,Billerica,MA,42.54805,-71.25054,-5,1,0.0625
01822,69884.5643,714,4.017306933,714,Billerica,MA,42.446396,-71.459405,-5,1,0.0625
01823,69884.5643,714,4.017306933,714,Haverhill,MA,42.800429,-71.11087,-5,1,0.0625
01824,99032,732,4,736,Chelmsford,MA,42.595491,-71.3544,-5,1,0.0625
01826,71731,711,4,715,Dracut,MA,42.677772,-71.316,-5,1,0.0625
01827,113594,743,4,747,Dunstable,MA,42.671356,-71.50292,-5,1,0.0625
01830,63388,705,4,709,Haverhill,MA,42.78519,-71.07011,-5,1,0.0625
01831,69884.5643,714,4.017306933,714,Haverhill,MA,42.771095,-71.122054,-5,1,0.0625
01832,57959,701,4,705,Haverhill,MA,42.781357,-71.11023,-5,1,0.0625
01833,97895,731,4,735,Georgetown,MA,42.729437,-70.98291,-5,1,0.0625
01834,84232,721,4,725,Groveland,MA,42.750691,-71.02487,-5,1,0.0625
01835,76253,715,4,719,Haverhill,MA,42.757767,-71.08518,-5,1,0.0625
01840,18507,672,4,676,Lawrence,MA,42.706941,-71.16181,-5,1,0.0625
01841,34128,683,4,687,Lawrence,MA,42.71159,-71.16667,-5,1,0.0625
01842,69884.5643,714,4.017306933,714,Lawrence,MA,42.635443,-70.879123,-5,1,0.0625
01843,42587,690,4,694,Lawrence,MA,42.691091,-71.16078,-5,1,0.0625
01844,66023,707,4,711,Methuen,MA,42.73004,-71.17935,-5,1,0.0625
01845,99505,732,4,736,North Andover,MA,42.683841,-71.11171,-5,1,0.0625
01850,54087,698,4,702,Lowell,MA,42.655791,-71.30504,-5,1,0.0625
01851,51795,696,4,700,Lowell,MA,42.630915,-71.33238,-5,1,0.0625
01852,55089,699,4,703,Lowell,MA,42.634112,-71.29849,-5,1,0.0625
01853,69884.5643,714,4.017306933,714,Lowell,MA,42.446396,-71.459405,-5,1,0.0625
01854,44616,691,4,695,Lowell,MA,42.649758,-71.33348,-5,1,0.0625
01856,69884.5643,714,4.017306933,714,Lowell,MA,42.641779,-71.303488,-5,1,0.0625
01860,75517,714,4,718,Merrimac,MA,42.834246,-71.00207,-5,1,0.0625
01862,86304,722,4,726,North Billerica,MA,42.573592,-71.2911,-5,1,0.0625
01863,77458,716,4,720,North Chelmsford,MA,42.634199,-71.39322,-5,1,0.0625
01864,97574,731,4,735,North Reading,MA,42.583436,-71.0982,-5,1,0.0625
01865,69884.5643,714,4.017306933,714,Nutting Lake,MA,42.446396,-71.459405,-5,1,0.0625
01866,69884.5643,714,4.017306933,714,Pinehurst,MA,42.446396,-71.459405,-5,1,0.0625
01867,103358,735,4,739,Reading,MA,42.52585,-71.10993,-5,1,0.0625
01876,83976,721,4,725,Tewksbury,MA,42.601684,-71.22071,-5,1,0.0625
01879,92239,727,4,731,Tyngsboro,MA,42.671589,-71.41694,-5,1,0.0625
01880,89830,725,4,729,Wakefield,MA,42.501345,-71.07132,-5,1,0.0625
01885,69884.5643,714,4.017306933,714,West Boxford,MA,42.635443,-70.879123,-5,1,0.0625
01886,123906,750,4,754,Westford,MA,42.592086,-71.43754,-5,1,0.0625
01887,97107,730,4,734,Wilmington,MA,42.558576,-71.17031,-5,1,0.0625
01888,69884.5643,714,4.017306933,714,Woburn,MA,42.446396,-71.459405,-5,1,0.0625
01889,69884.5643,714,4.017306933,714,North Reading,MA,42.571633,-71.109646,-5,1,0.0625
01890,128546,754,4,758,Winchester,MA,42.451945,-71.14276,-5,1,0.0625
01899,69884.5643,714,4.017306933,714,Andover,MA,42.635443,-70.879123,-5,1,0.0625
01901,18257,671,4,675,Lynn,MA,42.461246,-70.946743,-5,1,0.0625
01902,38107,686,4,690,Lynn,MA,42.469946,-70.94113,-5,1,0.0625
01903,69884.5643,714,4.017306933,714,Lynn,MA,42.635443,-70.879123,-5,1,0.0625
01904,69263,710,4,714,Lynn,MA,42.490421,-70.96579,-5,1,0.0625
01905,42449,689,4,693,Lynn,MA,42.464879,-70.97411,-5,1,0.0625
01906,69051,709,4,713,Saugus,MA,42.462796,-71.0098,-5,1,0.0625
01907,90516,725,4,729,Swampscott,MA,42.474409,-70.90588,-5,1,0.0625
01908,69884.5643,714,4.017306933,714,Nahant,MA,42.427096,-70.92809,-5,1,0.0625
01910,69884.5643,714,4.017306933,714,Lynn,MA,42.454796,-70.974694,-5,1,0.0625
01913,73843,713,4,717,Amesbury,MA,42.854423,-70.93547,-5,1,0.0625
01915,71363,711,4,715,Beverly,MA,42.560995,-70.8757,-5,1,0.0625
01921,143045,765,4,769,Boxford,MA,42.677869,-71.00844,-5,1,0.0625
01922,91052,726,4,730,Byfield,MA,42.76087,-70.92648,-5,1,0.0625
01923,76695,715,4,719,Danvers,MA,42.569756,-70.94322,-5,1,0.0625
01929,76989,715,4,719,Essex,MA,42.631753,-70.77925,-5,1,0.0625
01930,63047,705,4,709,Gloucester,MA,42.624015,-70.67552,-5,1,0.0625
01931,69884.5643,714,4.017306933,714,Gloucester,MA,42.635443,-70.879123,-5,1,0.0625
01936,69884.5643,714,4.017306933,714,Hamilton,MA,42.635443,-70.879123,-5,1,0.0625
01937,69884.5643,714,4.017306933,714,Hathorne,MA,42.635443,-70.879123,-5,1,0.0625
01938,82395,719,4,723,Ipswich,MA,42.682965,-70.84007,-5,1,0.0625
01940,90677,726,4,730,Lynnfield,MA,42.527895,-71.02834,-5,1,0.0625
01944,105000,736,4,740,Manchester,MA,42.580033,-70.76462,-5,1,0.0625
01945,95942,729,4,733,Marblehead,MA,42.497146,-70.86323,-5,1,0.0625
01947,69884.5643,714,4.017306933,714,Salem,MA,42.642845,-70.873647,-5,1,0.0625
01949,87728,723,4,727,Middleton,MA,42.602278,-71.01356,-5,1,0.0625
01950,76313,715,4,719,Newburyport,MA,42.809891,-70.86363,-5,1,0.0625
01951,91052,726,4,730,Newbury,MA,42.780141,-70.86866,-5,1,0.0625
01952,62924,705,4,709,Salisbury,MA,42.85048,-70.86153,-5,1,0.0625
01960,67119,708,4,712,Peabody,MA,42.534045,-70.96146,-5,1,0.0625
01961,69884.5643,714,4.017306933,714,Peabody,MA,42.635443,-70.879123,-5,1,0.0625
01965,69884.5643,714,4.017306933,714,Prides Crossing,MA,42.558113,-70.825743,-5,1,0.0625
01966,73676,713,4,717,Rockport,MA,42.659936,-70.61727,-5,1,0.0625
01969,74911,714,4,718,Rowley,MA,42.716708,-70.90899,-5,1,0.0625
01970,57313,701,4,705,Salem,MA,42.516845,-70.8985,-5,1,0.0625
01971,69884.5643,714,4.017306933,714,Salem,MA,42.635443,-70.879123,-5,1,0.0625
01982,97491,731,4,735,South Hamilton,MA,42.616643,-70.86513,-5,1,0.0625
01983,115015,744,4,748,Topsfield,MA,42.642471,-70.94424,-5,1,0.0625
01984,132697,757,4,761,Wenham,MA,42.600518,-70.87618,-5,1,0.0625
01985,111739,741,4,745,West Newbury,MA,42.790736,-70.97286,-5,1,0.0625
02018,69884.5643,714,4.017306933,714,Accord,MA,41.970474,-70.701357,-5,1,0.0625
02019,77420,716,4,720,Bellingham,MA,42.075122,-71.47953,-5,1,0.0625
02020,69884.5643,714,4.017306933,714,Brant Rock,MA,42.081825,-70.643868,-5,1,0.0625
02021,88829,724,4,728,Canton,MA,42.166776,-71.1343,-5,1,0.0625
02025,114214,743,4,747,Cohasset,MA,42.241908,-70.81223,-5,1,0.0625
02026,85131,721,4,725,Dedham,MA,42.244609,-71.16553,-5,1,0.0625
02027,69884.5643,714,4.017306933,714,Dedham,MA,42.180048,-71.08923,-5,1,0.0625
02029,57922.52019,704,2.966228495,704,Providence,RI,41.817398,-71.453674,-5,1,0.0625
02030,164583,781,4,785,Dover,MA,42.23888,-71.28241,-5,1,0.0625
02031,69884.5643,714,4.017306933,714,East Mansfield,MA,41.998799,-71.200894,-5,1,0.0625
02032,77708,716,4,720,East Walpole,MA,42.153912,-71.21362,-5,1,0.0625
02035,94994,729,4,733,Foxboro,MA,42.061427,-71.24232,-5,1,0.0625
02038,92042,727,4,731,Franklin,MA,42.089104,-71.4069,-5,1,0.0625
02040,69884.5643,714,4.017306933,714,Greenbush,MA,41.970474,-70.701357,-5,1,0.0625
02041,69884.5643,714,4.017306933,714,Green Harbor,MA,42.069642,-70.649075,-5,1,0.0625
02043,99910,732,4,736,Hingham,MA,42.225708,-70.88764,-5,1,0.0625
02044,69884.5643,714,4.017306933,714,Hingham,MA,41.970474,-70.701357,-5,1,0.0625
02045,70039,710,4,714,Hull,MA,42.286347,-70.87663,-5,1,0.0625
02047,75170,714,4,718,Humarock,MA,42.142836,-70.69353,-5,1,0.0625
02048,93593,728,4,732,Mansfield,MA,42.019982,-71.2191,-5,1,0.0625
02050,85395,722,4,726,Marshfield,MA,42.109763,-70.69172,-5,1,0.0625
02051,69884.5643,714,4.017306933,714,Marshfield Hills,MA,42.151202,-70.734146,-5,1,0.0625
02052,123176,750,4,754,Medfield,MA,42.185571,-71.30476,-5,1,0.0625
02053,100950,733,4,737,Medway,MA,42.151526,-71.42315,-5,1,0.0625
02054,85472,722,4,726,Millis,MA,42.166398,-71.36178,-5,1,0.0625
02055,69884.5643,714,4.017306933,714,Minot,MA,41.970474,-70.701357,-5,1,0.0625
02056,111767,741,4,745,Norfolk,MA,42.111836,-71.32855,-5,1,0.0625
02059,69884.5643,714,4.017306933,714,North Marshfield,MA,41.970474,-70.701357,-5,1,0.0625
02060,69884.5643,714,4.017306933,714,North Scituate,MA,41.970474,-70.701357,-5,1,0.0625
02061,106730,738,4,742,Norwell,MA,42.15243,-70.8205,-5,1,0.0625
02062,72935,712,4,716,Norwood,MA,42.185974,-71.20166,-5,1,0.0625
02065,69884.5643,714,4.017306933,714,Ocean Bluff,MA,42.097219,-70.651567,-5,1,0.0625
02066,92394,727,4,731,Scituate,MA,42.205038,-70.7513,-5,1,0.0625
02067,117828,746,4,750,Sharon,MA,42.113749,-71.17923,-5,1,0.0625
02070,69884.5643,714,4.017306933,714,Sheldonville,MA,42.180048,-71.08923,-5,1,0.0625
02071,91781,726,4,730,South Walpole,MA,42.101406,-71.27239,-5,1,0.0625
02072,69340,710,4,714,Stoughton,MA,42.125432,-71.10627,-5,1,0.0625
02081,92954,727,4,731,Walpole,MA,42.145237,-71.25375,-5,1,0.0625
02085,69884.5643,714,4.017306933,714,Foxborough,MA,42.075995,-71.286055,-5,1,0.0625
02090,116083,745,4,749,Westwood,MA,42.212949,-71.20735,-5,1,0.0625
02093,94524,728,4,732,Wrentham,MA,42.0597,-71.34617,-5,1,0.0625
02101,69884.5643,714,4.017306933,714,Boston,MA,42.370567,-71.026964,-5,1,0.0625
02102,69884.5643,714,4.017306933,714,Boston,MA,42.338947,-70.919635,-5,1,0.0625
02103,69884.5643,714,4.017306933,714,Boston,MA,42.338947,-70.919635,-5,1,0.0625
02104,69884.5643,714,4.017306933,714,Boston,MA,42.338947,-70.919635,-5,1,0.0625
02105,69884.5643,714,4.017306933,714,Boston,MA,42.338947,-70.919635,-5,1,0.0625
02106,69884.5643,714,4.017306933,714,Boston,MA,42.354318,-71.073449,-5,1,0.0625
02107,69884.5643,714,4.017306933,714,Boston,MA,42.338947,-70.919635,-5,1,0.0625
02108,96033,730,4,734,Boston,MA,42.357903,-71.06408,-5,1,0.0625
02109,92310,727,4,731,Boston,MA,42.361477,-71.05417,-5,1,0.0625
02110,102972,735,4,739,Boston,MA,42.356532,-71.05365,-5,1,0.0625
02111,31442,681,4,685,Boston,MA,42.349838,-71.06101,-5,1,0.0625
02112,69884.5643,714,4.017306933,714,Boston,MA,42.338947,-70.919635,-5,1,0.0625
02113,60386,703,4,707,Boston,MA,42.365028,-71.05636,-5,1,0.0625
02114,69809,710,4,714,Boston,MA,42.361792,-71.06774,-5,1,0.0625
02115,30282,680,4,684,Boston,MA,42.34308,-71.09268,-5,1,0.0625
02116,80153,718,4,722,Boston,MA,42.349622,-71.07372,-5,1,0.0625
02117,69884.5643,714,4.017306933,714,Boston,MA,42.338947,-70.919635,-5,1,0.0625
02118,51368,696,4,700,Boston,MA,42.338724,-71.07276,-5,1,0.0625
02119,36316,685,4,689,Boston,MA,42.324511,-71.08455,-5,1,0.0625
02120,28794,679,4,683,Boston,MA,42.332099,-71.09651,-5,1,0.0625
02121,28897,679,4,683,Boston,MA,42.307448,-71.08127,-5,1,0.0625
02122,45859,692,4,696,Boston,MA,42.296298,-71.05454,-5,1,0.0625
02123,69884.5643,714,4.017306933,714,Boston,MA,42.338947,-70.919635,-5,1,0.0625
02124,43598,690,4,694,Boston,MA,42.28713,-71.07156,-5,1,0.0625
02125,44266,691,4,695,Boston,MA,42.316852,-71.05811,-5,1,0.0625
02126,51733,696,4,700,Mattapan,MA,42.272098,-71.09426,-5,1,0.0625
02127,64285,706,4,710,Boston,MA,42.33499,-71.04562,-5,1,0.0625
02128,42613,690,4,694,Boston,MA,42.378297,-71.0255,-5,1,0.0625
02129,80223,718,4,722,Charlestown,MA,42.378619,-71.06495,-5,1,0.0625
02130,69576,710,4,714,Jamaica Plain,MA,42.309998,-71.11171,-5,1,0.0625
02131,62945,705,4,709,Roslindale,MA,42.284678,-71.13052,-5,1,0.0625
02132,76802,715,4,719,West Roxbury,MA,42.279432,-71.1598,-5,1,0.0625
02133,69884.5643,714,4.017306933,714,Boston,MA,42.338947,-70.919635,-5,1,0.0625
02134,33863,683,4,687,Allston,MA,42.355147,-71.13164,-5,1,0.0625
02135,52714,697,4,701,Brighton,MA,42.348418,-71.15349,-5,1,0.0625
02136,54410,698,4,702,Hyde Park,MA,42.252198,-71.12593,-5,1,0.0625
02137,69884.5643,714,4.017306933,714,Readville,MA,42.338947,-70.919635,-5,1,0.0625
02138,68127,709,4,713,Cambridge,MA,42.379146,-71.12803,-5,1,0.0625
02139,62821,705,4,709,Cambridge,MA,42.364347,-71.10431,-5,1,0.0625
02140,65283,707,4,711,Cambridge,MA,42.393327,-71.12837,-5,1,0.0625
02141,57909,701,4,705,Cambridge,MA,42.370519,-71.08443,-5,1,0.0625
02142,61141,703,4,707,Cambridge,MA,42.362297,-71.08412,-5,1,0.0625
02143,64966,706,4,710,Somerville,MA,42.381929,-71.09908,-5,1,0.0625
02144,68004,709,4,713,Somerville,MA,42.399546,-71.12165,-5,1,0.0625
02145,50718,696,4,700,Somerville,MA,42.390846,-71.09225,-5,1,0.0625
02146,69884.5643,714,4.017306933,714,Brookline,MA,42.308198,-71.088745,-5,1,0.0625
02147,69884.5643,714,4.017306933,714,Brookline Village,MA,42.180048,-71.08923,-5,1,0.0625
02148,55890,700,4,704,Malden,MA,42.428549,-71.06059,-5,1,0.0625
02149,49696,695,4,699,Everett,MA,42.409916,-71.0522,-5,1,0.0625
02150,40344,688,4,692,Chelsea,MA,42.396382,-71.03352,-5,1,0.0625
02151,51723,696,4,700,Revere,MA,42.416247,-71.00525,-5,1,0.0625
02152,68218,709,4,713,Winthrop,MA,42.373047,-70.97803,-5,1,0.0625
02153,69884.5643,714,4.017306933,714,Medford,MA,42.446396,-71.459405,-5,1,0.0625
02154,69884.5643,714,4.017306933,714,Waltham,MA,42.388938,-71.2398,-5,1,0.0625
02155,69803,710,4,714,Medford,MA,42.419846,-71.10942,-5,1,0.0625
02156,69884.5643,714,4.017306933,714,West Medford,MA,42.446396,-71.459405,-5,1,0.0625
02157,69884.5643,714,4.017306933,714,Babson Park,MA,42.173933,-71.185494,-5,1,0.0625
02158,69884.5643,714,4.017306933,714,Newton,MA,42.353696,-71.188149,-5,1,0.0625
02159,69884.5643,714,4.017306933,714,Newton,MA,42.316097,-71.191248,-5,1,0.0625
02160,69884.5643,714,4.017306933,714,Newton,MA,42.446396,-71.459405,-5,1,0.0625
02161,69884.5643,714,4.017306933,714,Newton,MA,42.446396,-71.459405,-5,1,0.0625
02162,69884.5643,714,4.017306933,714,Newton,MA,42.331896,-71.25405,-5,1,0.0625
02163,23429,675,4,679,Boston,MA,42.367946,-71.12056,-5,1,0.0625
02164,69884.5643,714,4.017306933,714,Newton,MA,42.446396,-71.459405,-5,1,0.0625
02165,69884.5643,714,4.017306933,714,Newton,MA,42.446396,-71.459405,-5,1,0.0625
02166,69884.5643,714,4.017306933,714,Auburndale,MA,42.346146,-71.243057,-5,1,0.0625
02167,69884.5643,714,4.017306933,714,Chestnut Hill,MA,42.320797,-71.169847,-5,1,0.0625
02168,69884.5643,714,4.017306933,714,Waban,MA,42.446396,-71.459405,-5,1,0.0625
02169,56647,700,4,704,Quincy,MA,42.250739,-70.99593,-5,1,0.0625
02170,64309,706,4,710,Quincy,MA,42.267049,-71.01834,-5,1,0.0625
02171,66808,708,4,712,Quincy,MA,42.284498,-71.02316,-5,1,0.0625
02172,69884.5643,714,4.017306933,714,Watertown,MA,42.372596,-71.177998,-5,1,0.0625
02173,69884.5643,714,4.017306933,714,Lexington,MA,42.446396,-71.459405,-5,1,0.0625
02174,69884.5643,714,4.017306933,714,Arlington,MA,42.417695,-71.167083,-5,1,0.0625
02175,69884.5643,714,4.017306933,714,Arlington Heights,MA,42.446396,-71.459405,-5,1,0.0625
02176,85681,722,4,726,Melrose,MA,42.459045,-71.06233,-5,1,0.0625
02177,69884.5643,714,4.017306933,714,Melrose,MA,42.446396,-71.459405,-5,1,0.0625
02178,69884.5643,714,4.017306933,714,Belmont,MA,42.446396,-71.459405,-5,1,0.0625
02179,69884.5643,714,4.017306933,714,Waverley,MA,42.446396,-71.459405,-5,1,0.0625
02180,78103,716,4,720,Stoneham,MA,42.480145,-71.09835,-5,1,0.0625
02181,69884.5643,714,4.017306933,714,Wellesley,MA,42.300596,-71.27875,-5,1,0.0625
02184,77129,715,4,719,Braintree,MA,42.209555,-70.99968,-5,1,0.0625
02185,69884.5643,714,4.017306933,714,Braintree,MA,42.180048,-71.08923,-5,1,0.0625
02186,98712,732,4,736,Milton,MA,42.253074,-71.07496,-5,1,0.0625
02187,69884.5643,714,4.017306933,714,Milton Village,MA,42.180048,-71.08923,-5,1,0.0625
02188,65251,707,4,711,Weymouth,MA,42.212866,-70.95872,-5,1,0.0625
02189,62491,704,4,708,Weymouth,MA,42.2112,-70.93111,-5,1,0.0625
02190,74205,713,4,717,Weymouth,MA,42.1711,-70.94597,-5,1,0.0625
02191,68143,709,4,713,Weymouth,MA,42.242749,-70.94434,-5,1,0.0625
02192,69884.5643,714,4.017306933,714,Needham,MA,42.180048,-71.08923,-5,1,0.0625
02193,69884.5643,714,4.017306933,714,Weston,MA,42.446396,-71.459405,-5,1,0.0625
02194,69884.5643,714,4.017306933,714,Needham,MA,42.292547,-71.225799,-5,1,0.0625
02195,69884.5643,714,4.017306933,714,Newton,MA,42.446396,-71.459405,-5,1,0.0625
02196,69884.5643,714,4.017306933,714,Boston,MA,42.338947,-70.919635,-5,1,0.0625
02199,68080,709,4,713,Boston,MA,42.34713,-71.08234,-5,1,0.0625
02201,69884.5643,714,4.017306933,714,Boston,MA,42.338947,-70.919635,-5,1,0.0625
02202,69884.5643,714,4.017306933,714,Boston,MA,42.361094,-71.061814,-5,1,0.0625
02203,106602,737,4,741,Boston,MA,42.361485,-71.060364,-5,1,0.0625
02204,69884.5643,714,4.017306933,714,Boston,MA,42.338947,-70.919635,-5,1,0.0625
02205,69884.5643,714,4.017306933,714,Boston,MA,42.350334,-71.053877,-5,1,0.0625
02206,69884.5643,714,4.017306933,714,Boston,MA,42.338947,-70.919635,-5,1,0.0625
02207,69884.5643,714,4.017306933,714,Boston,MA,42.338947,-70.919635,-5,1,0.0625
02208,69884.5643,714,4.017306933,714,Boston,MA,42.338947,-70.919635,-5,1,0.0625
02209,69884.5643,714,4.017306933,714,Boston,MA,42.338947,-70.919635,-5,1,0.0625
02210,61807,704,4,708,Boston,MA,42.347974,-71.04463,-5,1,0.0625
02211,69884.5643,714,4.017306933,714,Boston,MA,42.338947,-70.919635,-5,1,0.0625
02212,69884.5643,714,4.017306933,714,Boston,MA,42.446396,-71.459405,-5,1,0.0625
02215,30726,681,4,685,Boston,MA,42.346997,-71.10215,-5,1,0.0625
02216,69884.5643,714,4.017306933,714,Boston,MA,42.338947,-70.919635,-5,1,0.0625
02217,69884.5643,714,4.017306933,714,Boston,MA,42.338947,-70.919635,-5,1,0.0625
02222,69884.5643,714,4.017306933,714,Boston,MA,42.367797,-71.06282,-5,1,0.0625
02238,69884.5643,714,4.017306933,714,Cambridge,MA,42.446396,-71.459405,-5,1,0.0625
02239,69884.5643,714,4.017306933,714,Cambridge,MA,42.446396,-71.459405,-5,1,0.0625
02241,69884.5643,714,4.017306933,714,Boston,MA,42.338947,-70.919635,-5,1,0.0625
02254,69884.5643,714,4.017306933,714,Waltham,MA,42.446396,-71.459405,-5,1,0.0625
02258,69884.5643,714,4.017306933,714,Newton,MA,42.446396,-71.459405,-5,1,0.0625
02266,69884.5643,714,4.017306933,714,Boston,MA,42.338947,-70.919635,-5,1,0.0625
02269,69884.5643,714,4.017306933,714,Quincy,MA,42.180048,-71.08923,-5,1,0.0625
02272,69884.5643,714,4.017306933,714,Watertown,MA,42.446396,-71.459405,-5,1,0.0625
02277,69884.5643,714,4.017306933,714,Watertown,MA,42.446396,-71.459405,-5,1,0.0625
02283,69884.5643,714,4.017306933,714,Boston,MA,42.338947,-70.919635,-5,1,0.0625
02284,69884.5643,714,4.017306933,714,Boston,MA,42.338947,-70.919635,-5,1,0.0625
02293,69884.5643,714,4.017306933,714,Boston,MA,42.338947,-70.919635,-5,1,0.0625
02295,69884.5643,714,4.017306933,714,Boston,MA,42.338947,-70.919635,-5,1,0.0625
02297,69884.5643,714,4.017306933,714,Boston,MA,42.338947,-70.919635,-5,1,0.0625
02301,48470,694,4,698,Brockton,MA,42.0794,-71.03441,-5,1,0.0625
02302,62408,704,4,708,Brockton,MA,42.08715,-71.00222,-5,1,0.0625
02303,69884.5643,714,4.017306933,714,Brockton,MA,41.970474,-70.701357,-5,1,0.0625
02304,69884.5643,714,4.017306933,714,Brockton,MA,41.970474,-70.701357,-5,1,0.0625
02305,69884.5643,714,4.017306933,714,Brockton,MA,41.970474,-70.701357,-5,1,0.0625
02322,67313,708,4,712,Avon,MA,42.121932,-71.04522,-5,1,0.0625
02324,80879,718,4,722,Bridgewater,MA,41.979501,-70.97215,-5,1,0.0625
02325,69884.5643,714,4.017306933,714,Bridgewater,MA,41.98725,-70.972786,-5,1,0.0625
02327,69884.5643,714,4.017306933,714,Bryantville,MA,42.040708,-70.827245,-5,1,0.0625
02330,70048,710,4,714,Carver,MA,41.873697,-70.7656,-5,1,0.0625
02331,69884.5643,714,4.017306933,714,Duxbury,MA,41.970474,-70.701357,-5,1,0.0625
02332,116904,745,4,749,Duxbury,MA,42.031371,-70.70105,-5,1,0.0625
02333,82133,719,4,723,East Bridgewater,MA,42.029083,-70.95227,-5,1,0.0625
02334,69884.5643,714,4.017306933,714,Easton,MA,42.023528,-71.132397,-5,1,0.0625
02337,69884.5643,714,4.017306933,714,Elmwood,MA,42.022225,-70.931588,-5,1,0.0625
02338,69884.5643,714,4.017306933,714,Halifax,MA,41.999851,-70.85395,-5,1,0.0625
02339,104787,736,4,740,Hanover,MA,42.12867,-70.85913,-5,1,0.0625
02341,81912,719,4,723,Hanson,MA,42.059434,-70.86205,-5,1,0.0625
02343,62560,705,4,709,Holbrook,MA,42.148351,-71.01037,-5,1,0.0625
02344,69884.5643,714,4.017306933,714,Middleboro,MA,41.970474,-70.701357,-5,1,0.0625
02345,69884.5643,714,4.017306933,714,Manomet,MA,41.888198,-70.581029,-5,1,0.0625
02346,72466,712,4,716,Middleboro,MA,41.889582,-70.89406,-5,1,0.0625
02347,94495,728,4,732,Lakeville,MA,41.835094,-70.95973,-5,1,0.0625
02348,69884.5643,714,4.017306933,714,Middleboro,MA,41.970474,-70.701357,-5,1,0.0625
02349,69884.5643,714,4.017306933,714,Middleboro,MA,41.970474,-70.701357,-5,1,0.0625
02350,69884.5643,714,4.017306933,714,Monponsett,MA,42.018525,-70.847486,-5,1,0.0625
02351,75850,714,4,718,Abington,MA,42.119534,-70.94787,-5,1,0.0625
02355,69884.5643,714,4.017306933,714,North Carver,MA,41.916918,-70.801331,-5,1,0.0625
02356,99682,732,4,736,North Easton,MA,42.058507,-71.11309,-5,1,0.0625
02357,101136,733,4,737,North Easton,MA,42.064499,-71.087091,-5,1,0.0625
02358,69884.5643,714,4.017306933,714,North Pembroke,MA,41.805219,-70.62642,-5,1,0.0625
02359,83622,720,4,724,Pembroke,MA,42.065554,-70.80426,-5,1,0.0625
02360,74603,714,4,718,Plymouth,MA,41.894676,-70.61999,-5,1,0.0625
02361,69884.5643,714,4.017306933,714,Plymouth,MA,41.970474,-70.701357,-5,1,0.0625
02362,69884.5643,714,4.017306933,714,Plymouth,MA,41.970474,-70.701357,-5,1,0.0625
02363,69884.5643,714,4.017306933,714,Plymouth,MA,41.959094,-70.706774,-5,1,0.0625
02364,78923,717,4,721,Kingston,MA,41.993102,-70.73827,-5,1,0.0625
02366,89632,725,4,729,South Carver,MA,41.854063,-70.66088,-5,1,0.0625
02367,87917,723,4,727,Plympton,MA,41.968987,-70.80452,-5,1,0.0625
02368,65118,706,4,710,Randolph,MA,42.173417,-71.04912,-5,1,0.0625
02369,69884.5643,714,4.017306933,714,Dennis Port,MA,41.662531,-70.14021,-5,1,0.0625
02370,62855,705,4,709,Rockland,MA,42.129513,-70.91189,-5,1,0.0625
02375,78410,716,4,720,South Easton,MA,42.029749,-71.10191,-5,1,0.0625
02379,73651,713,4,717,West Bridgewater,MA,42.02195,-71.01878,-5,1,0.0625
02381,69884.5643,714,4.017306933,714,White Horse Beach,MA,41.931602,-70.561051,-5,1,0.0625
02382,77027,715,4,719,Whitman,MA,42.08235,-70.93734,-5,1,0.0625
02401,69884.5643,714,4.017306933,714,Brockton,MA,42.079399,-71.03459,-5,1,0.0625
02402,69884.5643,714,4.017306933,714,Brockton,MA,42.0863,-70.999339,-5,1,0.0625
02403,69884.5643,714,4.017306933,714,Brockton,MA,41.970474,-70.701357,-5,1,0.0625
02404,69884.5643,714,4.017306933,714,Brockton,MA,41.970474,-70.701357,-5,1,0.0625
02405,69884.5643,714,4.017306933,714,Brockton,MA,41.970474,-70.701357,-5,1,0.0625
02407,69884.5643,714,4.017306933,714,Scituate,MA,42.136086,-70.688251,-5,1,0.0625
02420,139453,762,4,766,Lexington,MA,42.452895,-71.21619,-5,1,0.0625
02421,126827,753,4,757,Lexington,MA,42.439295,-71.23553,-5,1,0.0625
02445,105027,736,4,740,Brookline,MA,42.324397,-71.13933,-5,1,0.0625
02446,67338,708,4,712,Brookline,MA,42.344747,-71.12141,-5,1,0.0625
02447,69884.5643,714,4.017306933,714,Brookline Village,MA,42.180048,-71.08923,-5,1,0.0625
02451,78675,717,4,721,Waltham,MA,42.393029,-71.24771,-5,1,0.0625
02452,67088,708,4,712,Waltham,MA,42.392496,-71.22153,-5,1,0.0625
02453,59067,702,4,706,Waltham,MA,42.370446,-71.23563,-5,1,0.0625
02454,69884.5643,714,4.017306933,714,Waltham,MA,42.356719,-71.250479,-5,1,0.0625
02456,69884.5643,714,4.017306933,714,New Town,MA,42.446396,-71.459405,-5,1,0.0625
02457,179792,792,4,796,Babson Park,MA,42.180048,-71.08923,-5,1,0.0625
02458,90740,726,4,730,Newton,MA,42.354727,-71.18809,-5,1,0.0625
02459,128598,754,4,758,Newton Center,MA,42.321197,-71.193,-5,1,0.0625
02460,107495,738,4,742,Newtonville,MA,42.352996,-71.20907,-5,1,0.0625
02461,110373,740,4,744,Newton Highlands,MA,42.31883,-71.20822,-5,1,0.0625
02462,134119,758,4,762,Newton Lower Falls,MA,42.331646,-71.25761,-5,1,0.0625
02464,81143,718,4,722,Newton Upper Falls,MA,42.311997,-71.22046,-5,1,0.0625
02465,110531,740,4,744,West Newton,MA,42.351046,-71.22677,-5,1,0.0625
02466,115116,744,4,748,Auburndale,MA,42.345833,-71.24735,-5,1,0.0625
02467,130044,755,4,759,Chestnut Hill,MA,42.321997,-71.17314,-5,1,0.0625
02468,166454,782,4,786,Waban,MA,42.325247,-71.2319,-5,1,0.0625
02471,69884.5643,714,4.017306933,714,Watertown,MA,42.446396,-71.459405,-5,1,0.0625
02472,74968,714,4,718,Watertown,MA,42.371296,-71.18196,-5,1,0.0625
02474,82845,720,4,724,Arlington,MA,42.419496,-71.15635,-5,1,0.0625
02475,69884.5643,714,4.017306933,714,Arlington Heights,MA,42.446396,-71.459405,-5,1,0.0625
02476,83975,721,4,725,Arlington,MA,42.416745,-71.17761,-5,1,0.0625
02477,69884.5643,714,4.017306933,714,Watertown,MA,42.446396,-71.459405,-5,1,0.0625
02478,95269,729,4,733,Belmont,MA,42.391546,-71.17471,-5,1,0.0625
02479,69884.5643,714,4.017306933,714,Waverley,MA,42.446396,-71.459405,-5,1,0.0625
02481,173681,788,4,792,Wellesley Hills,MA,42.313329,-71.27649,-5,1,0.0625
02482,123003,750,4,754,Wellesley,MA,42.300096,-71.30336,-5,1,0.0625
02492,118211,746,4,750,Needham,MA,42.278247,-71.23388,-5,1,0.0625
02493,147946,768,4,772,Weston,MA,42.358663,-71.28831,-5,1,0.0625
02494,104492,736,4,740,Needham,MA,42.29813,-71.23154,-5,1,0.0625
02495,69884.5643,714,4.017306933,714,Nonantum,MA,42.446396,-71.459405,-5,1,0.0625
02532,60257,703,4,707,Buzzards Bay,MA,41.751841,-70.59764,-5,1,0.0625
02534,60788,703,4,707,Cataumet,MA,41.66566,-70.616,-5,1,0.0625
02535,68906,709,4,713,Chilmark,MA,41.345578,-70.75145,-5,1,0.0625
02536,61733,704,4,708,East Falmouth,MA,41.578992,-70.5614,-5,1,0.0625
02537,86643,723,4,727,East Sandwich,MA,41.733837,-70.43754,-5,1,0.0625
02538,54545,699,4,703,East Wareham,MA,41.782915,-70.64881,-5,1,0.0625
02539,67625,708,4,712,Edgartown,MA,41.380479,-70.52453,-5,1,0.0625
02540,58667,702,4,706,Falmouth,MA,41.56105,-70.61968,-5,1,0.0625
02541,69884.5643,714,4.017306933,714,Falmouth,MA,41.799312,-70.308662,-5,1,0.0625
02542,39803,687,4,691,Buzzards Bay,MA,41.665605,-70.52456,-5,1,0.0625
02543,82355,719,4,723,Woods Hole,MA,41.526791,-70.66505,-5,1,0.0625
02549,69884.5643,714,4.017306933,714,Mashpee,MA,41.621779,-70.504349,-5,1,0.0625
02551,69884.5643,714,4.017306933,714,Oak Bluffs,MA,41.453321,-70.558023,-5,1,0.0625
02552,69884.5643,714,4.017306933,714,Menemsha,MA,41.379836,-70.643092,-5,1,0.0625
02553,70197,710,4,714,Monument Beach,MA,41.67336,-70.608047,-5,1,0.0625
02554,61502,704,4,708,Nantucket,MA,41.276758,-70.09089,-5,1,0.0625
02556,67750,708,4,712,North Falmouth,MA,41.6403,-70.63036,-5,1,0.0625
02557,59156,702,4,706,Oak Bluffs,MA,41.417376,-70.560032,-5,1,0.0625
02558,51662,696,4,700,Onset,MA,41.746424,-70.65956,-5,1,0.0625
02559,62761,705,4,709,Pocasset,MA,41.694132,-70.61706,-5,1,0.0625
02561,68597,709,4,713,Sagamore,MA,41.770254,-70.533664,-5,1,0.0625
02562,68960,709,4,713,Sagamore Beach,MA,41.793263,-70.519584,-5,1,0.0625
02563,84184,721,4,725,Sandwich,MA,41.735645,-70.48866,-5,1,0.0625
02564,81944,719,4,723,Siasconset,MA,41.273949,-70.015545,-5,1,0.0625
02565,69884.5643,714,4.017306933,714,Silver Beach,MA,41.799312,-70.308662,-5,1,0.0625
02567,69884.5643,714,4.017306933,714,Sagamore,MA,41.79197,-70.530852,-5,1,0.0625
02568,516,658,4,662,Vineyard Haven,MA,41.451263,-70.60872,-5,1,0.0625
02571,55500,699,4,703,Wareham,MA,41.751554,-70.71059,-5,1,0.0625
02573,69884.5643,714,4.017306933,714,Vineyard Haven,MA,41.379836,-70.643092,-5,1,0.0625
02574,69884.5643,714,4.017306933,714,West Falmouth,MA,41.603946,-70.638189,-5,1,0.0625
02575,68906,709,4,713,West Tisbury,MA,41.378807,-70.66376,-5,1,0.0625
02576,62034,704,4,708,West Wareham,MA,41.776042,-70.75783,-5,1,0.0625
02584,81944,719,4,723,Nantucket,MA,41.277794,-70.046019,-5,1,0.0625
02595,69884.5643,714,4.017306933,714,West Tisbury,MA,41.381585,-70.66351,-5,1,0.0625
02601,44219,691,4,695,Hyannis,MA,41.654741,-70.2895,-5,1,0.0625
02625,69884.5643,714,4.017306933,714,Barnstable Town,MA,41.640528,-70.433279,-5,1,0.0625
02630,71383,711,4,715,Barnstable,MA,41.700327,-70.29568,-5,1,0.0625
02631,58280,701,4,705,Brewster,MA,41.746647,-70.07773,-5,1,0.0625
02632,67464,708,4,712,Centerville,MA,41.658718,-70.34658,-5,1,0.0625
02633,65871,707,4,711,Chatham,MA,41.686534,-69.97746,-5,1,0.0625
02634,69884.5643,714,4.017306933,714,Centerville,MA,41.799312,-70.308662,-5,1,0.0625
02635,75166,714,4,718,Cotuit,MA,41.625037,-70.44317,-5,1,0.0625
02636,69884.5643,714,4.017306933,714,Centerville,MA,41.799312,-70.308662,-5,1,0.0625
02637,71516,711,4,715,Cummaquid,MA,41.701438,-70.277212,-5,1,0.0625
02638,56770,700,4,704,Dennis,MA,41.736684,-70.19183,-5,1,0.0625
02639,47356,693,4,697,Dennis Port,MA,41.661115,-70.13348,-5,1,0.0625
02641,61013,703,4,707,East Dennis,MA,41.734713,-70.20467,-5,1,0.0625
02642,59536,702,4,706,Eastham,MA,41.844087,-69.98921,-5,1,0.0625
02643,62589,705,4,709,East Orleans,MA,41.784308,-69.962034,-5,1,0.0625
02644,82198,719,4,723,Forestdale,MA,41.683462,-70.51211,-5,1,0.0625
02645,55137,699,4,703,Harwich,MA,41.707332,-70.05679,-5,1,0.0625
02646,52700,697,4,701,Harwich Port,MA,41.669219,-70.07419,-5,1,0.0625
02647,47353,693,4,697,Hyannis Port,MA,41.63275,-70.30435,-5,1,0.0625
02648,71212,711,4,715,Marstons Mills,MA,41.667689,-70.4168,-5,1,0.0625
02649,62993,705,4,709,Mashpee,MA,41.613743,-70.48754,-5,1,0.0625
02650,64477,706,4,710,North Chatham,MA,41.702265,-69.96958,-5,1,0.0625
02651,54464,698,4,702,North Eastham,MA,41.824264,-69.98176,-5,1,0.0625
02652,80425,718,4,722,North Truro,MA,42.02889,-70.07938,-5,1,0.0625
02653,57062,700,4,704,Orleans,MA,41.777647,-69.97312,-5,1,0.0625
02654,69884.5643,714,4.017306933,714,Nantucket,MA,41.543967,-69.987203,-5,1,0.0625
02655,72786,712,4,716,Osterville,MA,41.632935,-70.38693,-5,1,0.0625
02657,44646,691,4,695,Provincetown,MA,42.053355,-70.18947,-5,1,0.0625
02659,67569,708,4,712,South Chatham,MA,41.678628,-70.02495,-5,1,0.0625
02660,52611,697,4,701,South Dennis,MA,41.712338,-70.16165,-5,1,0.0625
02661,69884.5643,714,4.017306933,714,South Harwich,MA,41.675799,-70.0396,-5,1,0.0625
02662,69884.5643,714,4.017306933,714,South Orleans,MA,41.756694,-69.984123,-5,1,0.0625
02663,66109,707,4,711,South Wellfleet,MA,41.800531,-70.076776,-5,1,0.0625
02664,46673,693,4,697,South Yarmouth,MA,41.670981,-70.19797,-5,1,0.0625
02666,80425,718,4,722,Truro,MA,41.992804,-70.05427,-5,1,0.0625
02667,66118,707,4,711,Wellfleet,MA,41.922412,-70.01484,-5,1,0.0625
02668,71947,712,4,716,West Barnstable,MA,41.70631,-70.37048,-5,1,0.0625
02669,67569,708,4,712,West Chatham,MA,41.673635,-69.99494,-5,1,0.0625
02670,36555,685,4,689,West Dennis,MA,41.659749,-70.17089,-5,1,0.0625
02671,55677,699,4,703,West Harwich,MA,41.665589,-70.11152,-5,1,0.0625
02672,51601,696,4,700,West Hyannisport,MA,41.636077,-70.31962,-5,1,0.0625
02673,46414,692,4,696,West Yarmouth,MA,41.656883,-70.23726,-5,1,0.0625
02675,63557,705,4,709,Yarmouth Port,MA,41.703205,-70.22395,-5,1,0.0625
02702,91095,726,4,730,Assonet,MA,41.792192,-71.06446,-5,1,0.0625
02703,67398,708,4,712,Attleboro,MA,41.928099,-71.31456,-5,1,0.0625
02712,69884.5643,714,4.017306933,714,Chartley,MA,41.756214,-71.067062,-5,1,0.0625
02713,68906,709,4,713,Cuttyhunk,MA,41.429673,-70.8954,-5,1,0.0625
02714,69884.5643,714,4.017306933,714,Dartmouth,MA,41.756214,-71.067062,-5,1,0.0625
02715,83613,720,4,724,Dighton,MA,41.811514,-71.13633,-5,1,0.0625
02717,75793,714,4,718,East Freetown,MA,41.765934,-70.95332,-5,1,0.0625
02718,81142,718,4,722,East Taunton,MA,41.876249,-71.01827,-5,1,0.0625
02719,53936,698,4,702,Fairhaven,MA,41.634152,-70.8814,-5,1,0.0625
02720,47794,693,4,697,Fall River,MA,41.716952,-71.13986,-5,1,0.0625
02721,32106,682,4,686,Fall River,MA,41.685452,-71.15425,-5,1,0.0625
02722,69884.5643,714,4.017306933,714,Fall River,MA,41.756214,-71.067062,-5,1,0.0625
02723,30338,680,4,684,Fall River,MA,41.691369,-71.13234,-5,1,0.0625
02724,30652,681,4,685,Fall River,MA,41.684152,-71.17436,-5,1,0.0625
02725,65712,707,4,711,Somerset,MA,41.721652,-71.17482,-5,1,0.0625
02726,68267,709,4,713,Somerset,MA,41.754828,-71.14894,-5,1,0.0625
02735,69884.5643,714,4.017306933,714,Easton,MA,41.999346,-71.113582,-5,1,0.0625
02738,101006,733,4,737,Marion,MA,41.706599,-70.75086,-5,1,0.0625
02739,74877,714,4,718,Mattapoisett,MA,41.654776,-70.80087,-5,1,0.0625
02740,38238,686,4,690,New Bedford,MA,41.634754,-70.93752,-5,1,0.0625
02741,69884.5643,714,4.017306933,714,New Bedford,MA,41.756214,-71.067062,-5,1,0.0625
02742,69884.5643,714,4.017306933,714,New Bedford,MA,41.619557,-70.956346,-5,1,0.0625
02743,70836,711,4,715,Acushnet,MA,41.697015,-70.91019,-5,1,0.0625
02744,31128,681,4,685,New Bedford,MA,41.610754,-70.91453,-5,1,0.0625
02745,51951,697,4,701,New Bedford,MA,41.692806,-70.93264,-5,1,0.0625
02746,24099,676,4,680,New Bedford,MA,41.659336,-70.93347,-5,1,0.0625
02747,72292,712,4,716,North Dartmouth,MA,41.637916,-70.99076,-5,1,0.0625
02748,72885,712,4,716,South Dartmouth,MA,41.59156,-70.9494,-5,1,0.0625
02760,79274,717,4,721,North Attleboro,MA,41.975495,-71.33086,-5,1,0.0625
02761,69884.5643,714,4.017306933,714,North Attleboro,MA,41.756214,-71.067062,-5,1,0.0625
02762,73645,713,4,717,Plainville,MA,42.011848,-71.32392,-5,1,0.0625
02763,76722,715,4,719,Attleboro Falls,MA,41.967949,-71.31024,-5,1,0.0625
02764,83621,720,4,724,North Dighton,MA,41.851557,-71.15125,-5,1,0.0625
02766,77953,716,4,720,Norton,MA,41.969185,-71.1854,-5,1,0.0625
02767,76338,715,4,719,Raynham,MA,41.934586,-71.04905,-5,1,0.0625
02768,69884.5643,714,4.017306933,714,Raynham Center,MA,41.756214,-71.067062,-5,1,0.0625
02769,90530,725,4,729,Rehoboth,MA,41.835067,-71.26115,-5,1,0.0625
02770,95022,729,4,733,Rochester,MA,41.760783,-70.83848,-5,1,0.0625
02771,73961,713,4,717,Seekonk,MA,41.84345,-71.32343,-5,1,0.0625
02777,70245,710,4,714,Swansea,MA,41.741551,-71.21433,-5,1,0.0625
02779,81125,718,4,722,Berkley,MA,41.825252,-71.07799,-5,1,0.0625
02780,53796,698,4,702,Taunton,MA,41.904888,-71.10288,-5,1,0.0625
02781,69884.5643,714,4.017306933,714,Westport,MA,41.522877,-71.069344,-5,1,0.0625
02783,69884.5643,714,4.017306933,714,Taunton,MA,41.756214,-71.067062,-5,1,0.0625
02789,57922.52019,704,2.966228495,704,South Kingstown,RI,41.487831,-71.457592,-5,1,0.0625
02790,68367,709,4,713,Westport,MA,41.602517,-71.08904,-5,1,0.0625
02791,72105,712,4,716,Westport Point,MA,41.519104,-71.085137,-5,1,0.0625
02801,57922.52019,704,2.966228495,704,Adamsville,RI,41.530131,-71.284066,-5,1,0.07
02802,62982,705,3,708,Albion,RI,41.954098,-71.462053,-5,1,0.07
02804,71104,711,3,714,Ashaway,RI,41.430068,-71.78101,-5,1,0.07
02805,57922.52019,704,2.966228495,704,Foster,RI,41.830469,-71.711713,-5,1,0.07
02806,105128,736,3,739,Barrington,RI,41.746834,-71.32031,-5,1,0.07
02807,75417,714,3,717,Block Island,RI,41.171389,-71.58358,-5,1,0.07
02808,73725,713,3,716,Bradford,RI,41.402009,-71.74785,-5,1,0.07
02809,65256,707,3,709,Bristol,RI,41.6842,-71.26866,-5,1,0.07
02812,72819,712,3,715,Carolina,RI,41.46603,-71.66408,-5,1,0.07
02813,69956,710,3,713,Charlestown,RI,41.385256,-71.66813,-5,1,0.07
02814,79171,717,3,720,Chepachet,RI,41.896002,-71.70335,-5,1,0.07
02815,78476,716,3,719,Clayville,RI,41.777861,-71.67009,-5,1,0.07
02816,68135,709,3,712,Coventry,RI,41.69105,-71.57462,-5,1,0.07
02817,81419,719,3,722,West Greenwich,RI,41.625874,-71.67023,-5,1,0.07
02818,90430,725,3,728,East Greenwich,RI,41.649733,-71.46815,-5,1,0.07
02822,98411,731,3,734,Exeter,RI,41.563937,-71.60547,-5,1,0.07
02823,57922.52019,704,2.966228495,704,Fiskeville,RI,41.7312,-71.546756,-5,1,0.07
02824,57922.52019,704,2.966228495,704,Forestdale,RI,42.000248,-71.563057,-5,1,0.07
02825,73268,713,3,715,Foster,RI,41.785151,-71.72021,-5,1,0.07
02826,65948,707,3,710,Glendale,RI,41.982417,-71.600848,-5,1,0.07
02827,79051,717,3,720,Greene,RI,41.695419,-71.74472,-5,1,0.07
02828,78326,716,3,719,Greenville,RI,41.870799,-71.5539,-5,1,0.07
02829,57922.52019,704,2.966228495,704,Harmony,RI,41.879298,-71.589357,-5,1,0.07
02830,65423,707,3,710,Harrisville,RI,41.976659,-71.64969,-5,1,0.07
02831,68687,709,3,712,Hope,RI,41.73865,-71.57482,-5,1,0.07
02832,71453,711,3,714,Hope Valley,RI,41.511414,-71.72737,-5,1,0.07
02833,71104,711,3,714,Hopkinton,RI,41.470822,-71.77722,-5,1,0.07
02835,77813,716,3,719,Jamestown,RI,41.520312,-71.3718,-5,1,0.07
02836,72819,712,3,715,Kenyon,RI,41.448844,-71.62145,-5,1,0.07
02837,94866,729,3,732,Little Compton,RI,41.518038,-71.16548,-5,1,0.07
02838,62982,705,3,708,Manville,RI,41.968698,-71.47503,-5,1,0.07
02839,65948,707,3,710,Mapleville,RI,41.948108,-71.64003,-5,1,0.07
02840,58815,702,3,705,Newport,RI,41.488002,-71.31262,-5,1,0.07
02841,53958,698,3,701,Newport,RI,41.498977,-71.299004,-5,1,0.07
02842,70801,711,3,714,Middletown,RI,41.511739,-71.28658,-5,1,0.07
02852,76449,715,3,718,North Kingstown,RI,41.589701,-71.454,-5,1,0.07
02854,57922.52019,704,2.966228495,704,North Kingstown,RI,41.375317,-71.64393,-5,1,0.07
02857,74686,714,3,717,North Scituate,RI,41.83902,-71.6257,-5,1,0.07
02858,65948,707,3,710,Oakland,RI,41.96186,-71.64661,-5,1,0.07
02859,70127,710,3,713,Pascoag,RI,41.964896,-71.72311,-5,1,0.07
02860,35154,684,3,687,Pawtucket,RI,41.872099,-71.39007,-5,1,0.07
02861,53929,698,3,701,Pawtucket,RI,41.881632,-71.35583,-5,1,0.07
02862,57922.52019,704,2.966228495,704,Pawtucket,RI,41.86125,-71.369099,-5,1,0.07
02863,33666,683,3,686,Central Falls,RI,41.889863,-71.3926,-5,1,0.07
02864,73450,713,3,716,Cumberland,RI,41.949099,-71.41181,-5,1,0.07
02865,75540,714,3,717,Lincoln,RI,41.905666,-71.43023,-5,1,0.07
02871,59264,702,3,705,Portsmouth,RI,41.603929,-71.26099,-5,1,0.07
02872,71705,711,3,714,Prudence Island,RI,41.707119,-71.286834,-5,1,0.07
02873,71104,711,3,714,Rockville,RI,41.519922,-71.774023,-5,1,0.07
02874,90020,725,3,728,Saunderstown,RI,41.515135,-71.45692,-5,1,0.07
02875,72819,712,3,715,Shannock,RI,41.447642,-71.63877,-5,1,0.07
02876,80080,718,3,721,Slatersville,RI,41.998398,-71.576307,-5,1,0.07
02877,57922.52019,704,2.966228495,704,Slocum,RI,41.5289,-71.529854,-5,1,0.07
02878,62530,704,3,707,Tiverton,RI,41.629413,-71.18724,-5,1,0.07
02879,70848,711,3,714,Wakefield,RI,41.423601,-71.52322,-5,1,0.07
02880,57922.52019,704,2.966228495,704,Wakefield,RI,41.375317,-71.64393,-5,1,0.07
02881,47075,693,3,696,Kingston,RI,41.481001,-71.52689,-5,1,0.07
02882,61144,703,3,706,Narragansett,RI,41.432452,-71.46352,-5,1,0.07
02883,57922.52019,704,2.966228495,704,Peace Dale,RI,41.375317,-71.64393,-5,1,0.07
02885,54317,698,3,701,Warren,RI,41.726184,-71.27049,-5,1,0.07
02886,59954,703,3,706,Warwick,RI,41.705478,-71.45119,-5,1,0.07
02887,57922.52019,704,2.966228495,704,Warwick,RI,41.682455,-71.557732,-5,1,0.07
02888,58509,701,3,704,Warwick,RI,41.74805,-71.40982,-5,1,0.07
02889,60122,703,3,706,Warwick,RI,41.706814,-71.3911,-5,1,0.07
02891,61399,704,3,707,Westerly,RI,41.354881,-71.80387,-5,1,0.07
02892,80222,718,3,721,West Kingston,RI,41.50155,-71.58465,-5,1,0.07
02893,52342,697,3,700,West Warwick,RI,41.70375,-71.51857,-5,1,0.07
02894,72539,712,3,715,Wood River Junction,RI,41.444078,-71.69556,-5,1,0.07
02895,40457,688,3,691,Woonsocket,RI,42.001731,-71.50722,-5,1,0.07
02896,79213,717,3,720,North Smithfield,RI,41.988166,-71.55188,-5,1,0.07
02898,72768,712,3,715,Wyoming,RI,41.51495,-71.68484,-5,1,0.07
02901,57922.52019,704,2.966228495,704,Providence,RI,41.82275,-71.414451,-5,1,0.07
02902,57922.52019,704,2.966228495,704,Providence,RI,41.81835,-71.424851,-5,1,0.07
02903,26262,677,3,680,Providence,RI,41.8208,-71.41306,-5,1,0.07
02904,44102,691,3,694,Providence,RI,41.859199,-71.43142,-5,1,0.07
02905,34503,684,3,686,Providence,RI,41.7883,-71.40431,-5,1,0.07
02906,64563,706,3,709,Providence,RI,41.83635,-71.39427,-5,1,0.07
02907,30216,680,3,683,Providence,RI,41.79855,-71.42449,-5,1,0.07
02908,40373,688,3,691,Providence,RI,41.839296,-71.43802,-5,1,0.07
02909,33877,683,3,686,Providence,RI,41.8191,-71.44775,-5,1,0.07
02910,58287,701,3,704,Cranston,RI,41.776867,-71.43672,-5,1,0.07
02911,48687,694,3,697,North Providence,RI,41.853699,-71.47354,-5,1,0.07
02912,60938,703,3,706,Providence,RI,41.826737,-71.397699,-5,1,0.07
02914,46275,692,3,695,East Providence,RI,41.8124,-71.36834,-5,1,0.07
02915,52780,697,3,700,Riverside,RI,41.7695,-71.35564,-5,1,0.07
02916,59302,702,3,705,Rumford,RI,41.84325,-71.35391,-5,1,0.07
02917,71030,711,3,714,Smithfield,RI,41.894499,-71.51646,-5,1,0.07
02918,57922.52019,704,2.966228495,704,Providence,RI,41.841499,-71.440352,-5,1,0.07
02919,59408,702,3,705,Johnston,RI,41.825132,-71.49468,-5,1,0.07
02920,54380,698,3,701,Cranston,RI,41.7715,-71.46485,-5,1,0.07
02921,85748,722,3,725,Cranston,RI,41.76435,-71.50972,-5,1,0.07
02940,57922.52019,704,2.966228495,704,Providence,RI,41.871766,-71.558518,-5,1,0.07
03004,66657.66203,715,7.431383907,715,Fremont,NH,43.001762,-71.154866,-5,1,0.07
03030,66657.66203,715,7.431383907,715,Nashua,NH,42.749988,-71.46431,-5,1,0.07
03031,115544,744,7,752,Amherst,NH,42.854886,-71.6082,-5,1,0
03032,90082,725,7,733,Auburn,NH,43.000345,-71.35141,-5,1,0
03033,101722,734,7,741,Brookline,NH,42.742587,-71.66605,-5,1,0
03034,90986,726,7,733,Candia,NH,43.048372,-71.3078,-5,1,0
03036,99970,732,7,740,Chester,NH,42.967823,-71.23453,-5,1,0
03037,85573,722,7,729,Deerfield,NH,43.141746,-71.2488,-5,1,0
03038,72374,712,7,719,Derry,NH,42.886486,-71.30019,-5,1,0
03040,66657.66203,715,7.431383907,715,East Candia,NH,43.005895,-71.013202,-5,1,0
03041,66657.66203,715,7.431383907,715,East Derry,NH,43.005895,-71.013202,-5,1,0
03042,73405,713,7,720,Epping,NH,43.045076,-71.07095,-5,1,0
03043,67541,708,7,716,Francestown,NH,42.976901,-71.81007,-5,1,0
03044,76929,715,7,723,Fremont,NH,42.986119,-71.12524,-5,1,0
03045,76696,715,7,723,Goffstown,NH,43.037495,-71.57023,-5,1,0
03046,95682,729,7,737,Dunbarton,NH,43.102146,-71.602132,-5,1,0
03047,69136,709,7,717,Greenfield,NH,42.935709,-71.86645,-5,1,0
03048,63151,705,7,712,Greenville,NH,42.747024,-71.77591,-5,1,0
03049,112885,742,7,750,Hollis,NH,42.739909,-71.58044,-5,1,0
03051,77996,716,7,723,Hudson,NH,42.759821,-71.42079,-5,1,0
03052,100051,733,7,740,Litchfield,NH,42.85059,-71.45379,-5,1,0
03053,93465,728,7,735,Londonderry,NH,42.880481,-71.38205,-5,1,0
03054,92954,727,7,735,Merrimack,NH,42.858053,-71.51216,-5,1,0
03055,70617,711,7,718,Milford,NH,42.831686,-71.66743,-5,1,0
03057,97234,730,7,738,Mont Vernon,NH,42.899434,-71.68057,-5,1,0
03058,66657.66203,715,7.431383907,715,Sharon,NH,42.798995,-71.950759,-5,1,0
03060,45861,692,7,699,Nashua,NH,42.748888,-71.46492,-5,1,0
03061,66657.66203,715,7.431383907,715,Nashua,NH,42.952124,-71.653939,-5,1,0
03062,83501,720,7,728,Nashua,NH,42.724822,-71.49238,-5,1,0
03063,75894,714,7,722,Nashua,NH,42.770738,-71.51047,-5,1,0
03064,68657,709,7,716,Nashua,NH,42.774171,-71.47306,-5,1,0
03070,86118,722,7,730,New Boston,NH,42.978267,-71.69414,-5,1,0
03071,72739,712,7,720,New Ipswich,NH,42.753726,-71.86706,-5,1,0
03073,66657.66203,715,7.431383907,715,North Salem,NH,43.005895,-71.013202,-5,1,0
03076,93085,727,7,735,Pelham,NH,42.734182,-71.32359,-5,1,0
03077,61164,703,7,711,Raymond,NH,43.031491,-71.19598,-5,1,0
03079,68841,709,7,717,Salem,NH,42.792456,-71.21316,-5,1,0
03082,80299,718,7,725,Lyndeborough,NH,42.902259,-71.78452,-5,1,0
03084,72806,712,7,720,Temple,NH,42.81949,-71.85063,-5,1,0
03086,68090,709,7,716,Wilton,NH,42.830184,-71.78177,-5,1,0
03087,114204,743,7,751,Windham,NH,42.805194,-71.29878,-5,1,0
03091,48514.20808,712,18.0046783,712,Berwick,ME,43.319125,-70.818318,-5,1,0
03097,48514.20808,712,18.0046783,712,Ogunquit,ME,43.269137,-70.598303,-5,1,0
03101,28275,679,7,686,Manchester,NH,42.989984,-71.46376,-5,1,0
03102,50355,695,7,703,Manchester,NH,42.990684,-71.4868,-5,1,0
03103,51018,696,7,703,Manchester,NH,42.967684,-71.44828,-5,1,0
03104,61017,703,7,711,Manchester,NH,43.006033,-71.44716,-5,1,0
03105,66657.66203,715,7.431383907,715,Manchester,NH,42.952124,-71.653939,-5,1,0
03106,53663,698,7,705,Hooksett,NH,43.058785,-71.44412,-5,1,0
03107,66657.66203,715,7.431383907,715,Manchester,NH,42.952124,-71.653939,-5,1,0
03108,66657.66203,715,7.431383907,715,Manchester,NH,42.952124,-71.653939,-5,1,0
03109,67513,708,7,716,Manchester,NH,42.972584,-71.41349,-5,1,0
03110,117684,746,7,753,Bedford,NH,42.942551,-71.51993,-5,1,0
03111,66657.66203,715,7.431383907,715,Manchester,NH,42.952124,-71.653939,-5,1,0
03215,49073,694,7,702,Waterville Valley,NH,43.951304,-71.50336,-5,1,0
03216,64522,706,7,713,Andover,NH,43.444702,-71.78401,-5,1,0
03217,44153,691,7,698,Ashland,NH,43.705061,-71.62778,-5,1,0
03218,65727,707,7,714,Barnstead,NH,43.338347,-71.29305,-5,1,0
03220,56585,700,7,707,Belmont,NH,43.459555,-71.47352,-5,1,0
03221,67314,708,7,715,Bradford,NH,43.256053,-71.95405,-5,1,0
03222,47954,694,7,701,Bristol,NH,43.615799,-71.75006,-5,1,0
03223,44546,691,7,698,Campton,NH,43.887682,-71.65161,-5,1,0
03224,78500,716,7,724,Canterbury,NH,43.346137,-71.54434,-5,1,0
03225,65804,707,7,714,Center Barnstead,NH,43.354005,-71.22819,-5,1,0
03226,1341,659,7,666,Center Harbor,NH,43.721094,-71.49652,-5,1,0
03227,51866,697,7,704,Center Sandwich,NH,43.802936,-71.45126,-5,1,0
03229,86083,722,7,730,Contoocook,NH,43.204192,-71.70711,-5,1,0
03230,62943,705,7,712,Danbury,NH,43.506405,-71.87281,-5,1,0
03231,64522,706,7,713,East Andover,NH,43.466172,-71.736518,-5,1,0
03232,66657.66203,715,7.431383907,715,East Hebron,NH,43.967542,-71.840883,-5,1,0
03233,66146,707,7,715,Elkins,NH,43.423484,-71.93648,-5,1,0
03234,71686,711,7,719,Epsom,NH,43.228594,-71.3611,-5,1,0
03235,49138,694,7,702,Franklin,NH,43.444456,-71.66034,-5,1,0
03237,64219,706,7,713,Gilmanton,NH,43.42975,-71.37517,-5,1,0
03238,44050,691,7,698,Glencliff,NH,43.967542,-71.840883,-5,1,0
03240,54297,698,7,706,Grafton,NH,43.568328,-71.96422,-5,1,0
03241,70144,710,7,718,Hebron,NH,43.713794,-71.80642,-5,1,0
03242,73472,713,7,720,Henniker,NH,43.173469,-71.81722,-5,1,0
03243,62943,705,7,712,Hill,NH,43.521669,-71.73815,-5,1,0
03244,57426,701,7,708,Hillsboro,NH,43.119417,-71.92108,-5,1,0
03245,44153,691,7,698,Holderness,NH,43.737831,-71.604406,-5,1,0
03246,45867,692,7,699,Laconia,NH,43.557153,-71.43842,-5,1,0
03247,66657.66203,715,7.431383907,715,Laconia,NH,43.588972,-71.445452,-5,1,0
03249,60450,703,7,710,Laconia,NH,43.555878,-71.398521,-5,1,0
03251,49073,694,7,702,Lincoln,NH,44.051981,-71.6606,-5,1,0
03252,66657.66203,715,7.431383907,715,Lochmere,NH,43.468562,-71.537145,-5,1,0
03253,58931,702,7,709,Meredith,NH,43.644559,-71.50488,-5,1,0
03254,74162,713,7,721,Moultonborough,NH,43.712184,-71.39299,-5,1,0
03255,67396,708,7,716,Newbury,NH,43.32582,-72.02654,-5,1,0
03256,585,658,7,666,New Hampton,NH,43.60768,-71.64372,-5,1,0
03257,66175,707,7,715,New London,NH,43.418863,-72.00004,-5,1,0
03258,74808,714,7,721,Chichester,NH,43.255881,-71.397599,-5,1,0
03259,51866,697,7,704,North Sandwich,NH,43.880005,-71.39475,-5,1,0
03260,67396,708,7,716,North Sutton,NH,43.356838,-71.9255,-5,1,0
03261,64816,706,7,714,Northwood,NH,43.216633,-71.2079,-5,1,0
03262,44050,691,7,698,North Woodstock,NH,44.0285,-71.68701,-5,1,0
03263,57987,701,7,709,Pittsfield,NH,43.30368,-71.3215,-5,1,0
03264,43783,690,7,698,Plymouth,NH,43.753837,-71.64503,-5,1,0
03266,51840,696,7,704,Rumney,NH,43.806365,-71.87952,-5,1,0
03268,64522,706,7,713,Salisbury,NH,43.388571,-71.74199,-5,1,0
03269,61702,704,7,711,Sanbornton,NH,43.523175,-71.5876,-5,1,0
03270,66657.66203,715,7.431383907,715,New Boston,NH,43.203614,-71.550864,-5,1,0
03272,66657.66203,715,7.431383907,715,South Newbury,NH,43.310279,-71.662928,-5,1,0
03273,67396,708,7,716,South Sutton,NH,43.317257,-71.92709,-5,1,0
03274,66657.66203,715,7.431383907,715,Stinson Lake,NH,43.967542,-71.840883,-5,1,0
03275,58388,701,7,709,Suncook,NH,43.152469,-71.43654,-5,1,0
03276,55931,700,7,707,Tilton,NH,43.446729,-71.5785,-5,1,0
03278,63262,705,7,712,Warner,NH,43.283838,-71.82537,-5,1,0
03279,44050,691,7,698,Warren,NH,43.938224,-71.88853,-5,1,0
03280,52648,697,7,705,Washington,NH,43.173046,-72.09755,-5,1,0
03281,78480,716,7,724,Weare,NH,43.080986,-71.72329,-5,1,0
03282,59259,702,7,709,Wentworth,NH,43.874357,-71.91765,-5,1,0
03284,81000,718,7,726,Springfield,NH,43.501755,-72.01296,-5,1,0
03285,49073,694,7,702,Springfield,NH,43.501755,-72.01296,-5,1,0
03287,62943,705,7,712,Wilmot,NH,43.430018,-71.90457,-5,1,0
03289,66657.66203,715,7.431383907,715,Winnisquam,NH,43.496372,-71.519728,-5,1,0
03290,98477,731,7,739,Nottingham,NH,43.115874,-71.11081,-5,1,0
03291,98542,731,7,739,West Nottingham,NH,43.179984,-71.1392,-5,1,0
03293,44050,691,7,698,Woodstock,NH,43.967542,-71.840883,-5,1,0
03298,66657.66203,715,7.431383907,715,Tilton,NH,43.524872,-71.445841,-5,1,0
03299,66657.66203,715,7.431383907,715,Tilton,NH,43.524872,-71.445841,-5,1,0
03301,52876,697,7,705,Concord,NH,43.213705,-71.53774,-5,1,0
03302,66657.66203,715,7.431383907,715,Concord,NH,43.310279,-71.662928,-5,1,0
03303,57450,701,7,708,Concord,NH,43.283796,-71.63832,-5,1,0
03304,103270,735,7,742,Bow,NH,43.144614,-71.53576,-5,1,0
03305,66657.66203,715,7.431383907,715,Concord,NH,43.2134,-71.517151,-5,1,0
03307,74570,713,7,721,Loudon,NH,43.31773,-71.4534,-5,1,0
03342,66657.66203,715,7.431383907,715,Bennington,NH,43.01428,-71.881017,-5,1,0
03386,66657.66203,715,7.431383907,715,Tamworth,NH,43.89715,-71.30915,-5,1,0
03431,49288,695,7,702,Keene,NH,42.946418,-72.28616,-5,1,0
03435,66657.66203,715,7.431383907,715,Keene,NH,42.947098,-72.243029,-5,1,0
03438,66657.66203,715,7.431383907,715,Harrisville,NH,42.921791,-72.00547,-5,1,0
03440,61481,704,7,711,Antrim,NH,43.060424,-71.95068,-5,1,0
03441,36932,685,7,693,Ashuelot,NH,42.791069,-72.4352,-5,1,0
03442,67351,708,7,716,Bennington,NH,43.005429,-71.91635,-5,1,0
03443,79400,717,7,725,Chesterfield,NH,42.871815,-72.47163,-5,1,0
03444,60369,703,7,710,Dublin,NH,42.899874,-72.06334,-5,1,0
03445,60369,703,7,710,Sullivan,NH,43.009728,-72.19383,-5,1,0
03446,52053,697,7,704,Swanzey,NH,42.870578,-72.29978,-5,1,0
03447,67839,708,7,716,Fitzwilliam,NH,42.754744,-72.14838,-5,1,0
03448,55170,699,7,706,Gilsum,NH,43.055293,-72.26149,-5,1,0
03449,64231,706,7,713,Hancock,NH,42.975105,-71.98913,-5,1,0
03450,60369,703,7,710,Harrisville,NH,42.941175,-72.06043,-5,1,0
03451,44533,691,7,698,Hinsdale,NH,42.797633,-72.49518,-5,1,0
03452,56637,700,7,708,Jaffrey,NH,42.827096,-72.03418,-5,1,0
03455,55913,700,7,707,Marlborough,NH,42.932177,-72.16219,-5,1,0
03456,55170,699,7,706,Marlow,NH,43.125523,-72.21382,-5,1,0
03457,60369,703,7,710,Munsonville,NH,43.025227,-72.14365,-5,1,0
03458,70275,710,7,718,Peterborough,NH,42.884919,-71.95133,-5,1,0
03461,68250,709,7,716,Rindge,NH,42.749835,-72.01034,-5,1,0
03462,79400,717,7,725,Spofford,NH,42.913966,-72.41522,-5,1,0
03464,60369,703,7,710,Stoddard,NH,43.078658,-72.0959,-5,1,0
03465,55910,700,7,707,Troy,NH,42.822155,-72.17618,-5,1,0
03466,79400,717,7,725,West Chesterfield,NH,42.899338,-72.51629,-5,1,0
03467,79400,717,7,725,Westmoreland,NH,42.971069,-72.42512,-5,1,0
03468,66657.66203,715,7.431383907,715,West Peterborough,NH,42.890804,-71.933396,-5,1,0
03469,66657.66203,715,7.431383907,715,West Swanzey,NH,42.87341,-72.31509,-5,1,0
03470,43642,690,7,698,Winchester,NH,42.775629,-72.33893,-5,1,0
03477,66657.66203,715,7.431383907,715,Fitzwilliam,NH,42.74513,-72.150882,-5,1,0
03552,66657.66203,715,7.431383907,715,Pittsburg,NH,45.085717,-71.345714,-5,1,0
03561,44787,691,7,699,Littleton,NH,44.313606,-71.79751,-5,1,0
03570,39342,687,7,695,Berlin,NH,44.463337,-71.19092,-5,1,0
03572,66657.66203,715,7.431383907,715,Goshen,NH,43.28616,-72.148784,-5,1,0
03574,58082,701,7,709,Bethlehem,NH,44.28177,-71.69225,-5,1,0
03575,60741,703,7,711,Bretton Woods,NH,44.695648,-71.387387,-5,1,0
03576,36884,685,7,693,Colebrook,NH,44.893888,-71.44766,-5,1,0
03578,66657.66203,715,7.431383907,715,Landaff,NH,44.101208,-71.854211,-5,1,0
03579,41891,689,7,696,Errol,NH,44.789296,-71.15394,-5,1,0
03580,56505,700,7,707,Franconia,NH,44.200124,-71.69959,-5,1,0
03581,43217,690,7,697,Gorham,NH,44.386557,-71.16273,-5,1,0
03582,35740,684,7,692,Groveton,NH,44.610605,-71.48147,-5,1,0
03583,60741,703,7,711,Jefferson,NH,44.376866,-71.46436,-5,1,0
03584,46889,693,7,700,Lancaster,NH,44.483756,-71.54999,-5,1,0
03585,50406,695,7,703,Lisbon,NH,44.225864,-71.87371,-5,1,0
03586,58082,701,7,709,Lisbon,NH,44.225864,-71.87371,-5,1,0
03587,66657.66203,715,7.431383907,715,Meadows,NH,44.695648,-71.387387,-5,1,0
03588,52026,697,7,704,Milan,NH,44.608332,-71.24335,-5,1,0
03589,66657.66203,715,7.431383907,715,Mount Washington,NH,44.695648,-71.387387,-5,1,0
03590,35828,685,7,692,North Stratford,NH,44.719769,-71.59395,-5,1,0
03592,38616,687,7,694,Pittsburg,NH,45.085547,-71.30724,-5,1,0
03593,60741,703,7,711,Pittsburg,NH,45.085547,-71.30724,-5,1,0
03595,60741,703,7,711,Twin Mountain,NH,44.271516,-71.51746,-5,1,0
03597,38550,687,7,694,West Stewartstown,NH,44.695648,-71.387387,-5,1,0
03598,48061,694,7,701,Whitefield,NH,44.378771,-71.62248,-5,1,0
03601,58667,702,7,709,Acworth,NH,43.242719,-72.30269,-5,1,0
03602,56041,700,7,707,Alstead,NH,43.142384,-72.32575,-5,1,0
03603,49290,695,7,702,Charlestown,NH,43.249468,-72.39026,-5,1,0
03604,58112,701,7,709,Drewsville,NH,42.947098,-72.243029,-5,1,0
03605,52648,697,7,705,Lempster,NH,43.231807,-72.17556,-5,1,0
03607,58667,702,7,709,South Acworth,NH,43.195329,-72.26894,-5,1,0
03608,58112,701,7,709,Walpole,NH,43.075411,-72.41902,-5,1,0
03609,58112,701,7,709,North Walpole,NH,43.142254,-72.4483,-5,1,0
03638,66657.66203,715,7.431383907,715,Freedom,NH,43.822389,-71.092797,-5,1,0
03648,66657.66203,715,7.431383907,715,Enfield,NH,43.630276,-72.135352,-5,1,0
03678,66657.66203,715,7.431383907,715,Lyme,NH,43.827375,-72.139036,-5,1,0
03688,48514.20808,712,18.0046783,712,Lebanon,ME,43.341381,-70.955693,-5,1,0
03733,66657.66203,715,7.431383907,715,Newport,NH,43.38807,-72.243666,-5,1,0
03740,50092,695,7,703,Bath,NH,44.114163,-71.948852,-5,1,0
03741,60392,703,7,710,Canaan,NH,43.659172,-72.01333,-5,1,0
03743,42247,689,7,697,Claremont,NH,43.374562,-72.34152,-5,1,0
03745,77619,716,7,723,Cornish,NH,43.476337,-72.33337,-5,1,0
03746,77619,716,7,723,Cornish Flat,NH,43.364504,-72.193966,-5,1,0
03747,66657.66203,715,7.431383907,715,Enfield,NH,43.581769,-72.097366,-5,1,0
03748,61496,704,7,711,Enfield,NH,43.614847,-72.12058,-5,1,0
03749,66657.66203,715,7.431383907,715,Enfield Center,NH,43.579573,-72.08541,-5,1,0
03750,110729,741,7,748,Etna,NH,43.701003,-72.20056,-5,1,0
03751,64611,706,7,713,Georges Mills,NH,43.437503,-72.07185,-5,1,0
03752,52648,697,7,705,Goshen,NH,43.304058,-72.13525,-5,1,0
03753,81000,718,7,726,Grantham,NH,43.516383,-72.12954,-5,1,0
03754,45794,692,7,699,Guild,NH,43.365618,-72.125562,-5,1,0
03755,81607,719,7,726,Hanover,NH,43.719756,-72.2507,-5,1,0
03756,66657.66203,715,7.431383907,715,Lebanon,NH,43.967542,-71.840883,-5,1,0
03757,66657.66203,715,7.431383907,715,Sunapee,NH,43.444147,-72.088709,-5,1,0
03765,41575,689,7,696,Haverhill,NH,44.037125,-72.05658,-5,1,0
03766,59682,702,7,710,Lebanon,NH,43.642945,-72.24403,-5,1,0
03768,70144,710,7,718,Lyme,NH,43.823864,-72.13297,-5,1,0
03769,66657.66203,715,7.431383907,715,Lyme Center,NH,43.786267,-72.120468,-5,1,0
03770,77619,716,7,723,Meriden,NH,43.525462,-72.28072,-5,1,0
03771,50406,695,7,703,Monroe,NH,44.281722,-72.02789,-5,1,0
03773,49852,695,7,702,Newport,NH,43.358339,-72.18321,-5,1,0
03774,41575,689,7,696,North Haverhill,NH,44.08541,-71.9943,-5,1,0
03777,59259,702,7,709,Orford,NH,43.908925,-72.07831,-5,1,0
03779,59259,702,7,709,Piermont,NH,43.976427,-72.04409,-5,1,0
03780,41614,689,7,696,Pike,NH,44.029684,-71.98612,-5,1,0
03781,77619,716,7,723,Plainfield,NH,43.53357,-72.30353,-5,1,0
03782,59775,702,7,710,Sunapee,NH,43.381133,-72.09028,-5,1,0
03784,56652,700,7,708,West Lebanon,NH,43.649781,-72.30594,-5,1,0
03785,42817,690,7,697,Woodsville,NH,44.133215,-71.96306,-5,1,0
03801,63815,705,7,713,Portsmouth,NH,43.070188,-70.77684,-5,1,0
03802,66657.66203,715,7.431383907,715,Portsmouth,NH,43.005895,-71.013202,-5,1,0
03803,66657.66203,715,7.431383907,715,Portsmouth,NH,42.92703,-71.444752,-5,1,0
03804,66657.66203,715,7.431383907,715,Portsmouth,NH,43.005895,-71.013202,-5,1,0
03805,66657.66203,715,7.431383907,715,Rollinsford,NH,43.285282,-70.930684,-5,1,0
03809,57560,701,7,708,Alton,NH,43.478364,-71.22377,-5,1,0
03810,57569,701,7,708,Alton Bay,NH,43.478917,-71.28776,-5,1,0
03811,87514,723,7,731,Atkinson,NH,42.836245,-71.16246,-5,1,0
03812,46357,692,7,700,Bartlett,NH,44.081906,-71.29729,-5,1,0
03813,46708,693,7,700,Center Conway,NH,44.041089,-71.0627,-5,1,0
03814,44967,691,7,699,Center Ossipee,NH,43.767878,-71.12926,-5,1,0
03815,66657.66203,715,7.431383907,715,Center Strafford,NH,43.256254,-71.10317,-5,1,0
03816,52679,697,7,705,Center Tuftonboro,NH,43.685171,-71.28404,-5,1,0
03817,51866,697,7,704,Chocorua,NH,43.878112,-71.22069,-5,1,0
03818,49733,695,7,702,Conway,NH,43.966958,-71.15892,-5,1,0
03819,78083,716,7,724,Danville,NH,42.927682,-71.12034,-5,1,0
03820,59989,703,7,710,Dover,NH,43.190984,-70.88787,-5,1,0
03821,66657.66203,715,7.431383907,715,Dover,NH,43.326734,-71.028427,-5,1,0
03822,66657.66203,715,7.431383907,715,Dover,NH,43.326734,-71.028427,-5,1,0
03823,72209,712,7,719,Dover,NH,43.326734,-71.028427,-5,1,0
03824,60676,703,7,711,Durham,NH,43.128085,-70.96035,-5,1,0
03825,74102,713,7,721,Barrington,NH,43.208136,-71.04356,-5,1,0
03826,82711,720,7,727,East Hampstead,NH,42.890357,-71.12296,-5,1,0
03827,87103,723,7,730,East Kingston,NH,42.91574,-70.98459,-5,1,0
03830,46406,692,7,700,East Wakefield,NH,43.640621,-70.98935,-5,1,0
03832,55531,699,7,707,Eaton Center,NH,43.907045,-71.04716,-5,1,0
03833,74806,714,7,721,Exeter,NH,42.973783,-70.97665,-5,1,0
03835,47975,694,7,701,Farmington,NH,43.395688,-71.06217,-5,1,0
03836,45728,692,7,699,Freedom,NH,43.814201,-71.0803,-5,1,0
03837,64219,706,7,713,Gilmanton Iron Works,NH,43.435913,-71.32971,-5,1,0
03838,46357,692,7,700,Glen,NH,44.116958,-71.20354,-5,1,0
03839,55733,699,7,707,Rochester,NH,43.267581,-70.98552,-5,1,0
03840,75526,714,7,722,Greenland,NH,43.038279,-70.84714,-5,1,0
03841,83959,721,7,728,Hampstead,NH,42.880837,-71.18252,-5,1,0
03842,72310,712,7,719,Hampton,NH,42.93569,-70.82514,-5,1,0
03843,66657.66203,715,7.431383907,715,Hampton,NH,43.005895,-71.013202,-5,1,0
03844,112417,742,7,749,Hampton Falls,NH,42.923946,-70.88666,-5,1,0
03845,45924,692,7,699,Intervale,NH,44.086488,-71.13865,-5,1,0
03846,46357,692,7,700,Jackson,NH,44.166268,-71.18089,-5,1,0
03847,40661,688,7,696,Kearsarge,NH,43.883871,-71.257726,-5,1,0
03848,69792,710,7,717,Kingston,NH,42.923643,-71.06236,-5,1,0
03849,55543,699,7,707,Madison,NH,43.930805,-71.14311,-5,1,0
03850,52679,697,7,705,Melvin Village,NH,43.707657,-71.301681,-5,1,0
03851,58382,701,7,709,Milton,NH,43.422942,-71.011369,-5,1,0
03852,58382,701,7,709,Milton Mills,NH,43.500126,-70.96931,-5,1,0
03853,52679,697,7,705,Mirror Lake,NH,43.642398,-71.28614,-5,1,0
03854,67292,708,7,715,New Castle,NH,43.068338,-70.72353,-5,1,0
03855,60625,703,7,710,New Durham,NH,43.443682,-71.14628,-5,1,0
03856,79824,717,7,725,Newfields,NH,43.03833,-70.95076,-5,1,0
03857,70588,711,7,718,Newmarket,NH,43.072738,-70.94336,-5,1,0
03858,87257,723,7,730,Newton,NH,42.871322,-71.04807,-5,1,0
03859,66657.66203,715,7.431383907,715,Newton Junction,NH,42.861915,-71.04002,-5,1,0
03860,40861,688,7,696,North Conway,NH,44.035684,-71.13084,-5,1,0
03861,72209,712,7,719,North Conway,NH,44.035684,-71.13084,-5,1,0
